{
"type": "FeatureCollection",
"name": "plc",
"crs": { "type": "name", "properties": { "name": "urn:ogc:def:crs:OGC:1.3:CRS84" } },
"features": [
{ "type": "Feature", "properties": { "REGION": "HAUTS PLATEAUX", "WILAYA": "BATNA", "COMMUNE": "NGAOUS", "NOMBRE PLA": 202 }, "geometry": { "type": "Point", "coordinates": [ 5.5932388, 35.556614 ] } },
{ "type": "Feature", "properties": { "REGION": "HAUTS PLATEAUX", "WILAYA": "BATNA", "COMMUNE": "MDOUKAL", "NOMBRE PLA": 65 }, "geometry": { "type": "Point", "coordinates": [ 5.1640606, 35.127083 ] } },
{ "type": "Feature", "properties": { "REGION": "HAUTS PLATEAUX", "WILAYA": "BATNA", "COMMUNE": "BENI FOUDHALA EL HAKANIA", "NOMBRE PLA": 5 }, "geometry": { "type": "Point", "coordinates": [ 6.0467429, 35.39283 ] } },
{ "type": "Feature", "properties": { "REGION": "HAUTS PLATEAUX", "WILAYA": "BATNA", "COMMUNE": "SEGGANA", "NOMBRE PLA": 33 }, "geometry": { "type": "Point", "coordinates": [ 5.54073, 35.32959 ] } },
{ "type": "Feature", "properties": { "REGION": "HAUTS PLATEAUX", "WILAYA": "BATNA", "COMMUNE": "OULED SELLAM", "NOMBRE PLA": 66 }, "geometry": { "type": "Point", "coordinates": [ 5.793201, 35.841187 ] } },
{ "type": "Feature", "properties": { "REGION": "HAUTS PLATEAUX", "WILAYA": "BATNA", "COMMUNE": "CHEMORA", "NOMBRE PLA": 62 }, "geometry": { "type": "Point", "coordinates": [ 6.5996962, 35.625622 ] } },
{ "type": "Feature", "properties": { "REGION": "HAUTS PLATEAUX", "WILAYA": "BATNA", "COMMUNE": "LEMCEN", "NOMBRE PLA": 33 }, "geometry": { "type": "Point", "coordinates": [ 6.2375002, 35.531101 ] } },
{ "type": "Feature", "properties": { "REGION": "HAUTS PLATEAUX", "WILAYA": "BATNA", "COMMUNE": "BITAM", "NOMBRE PLA": 152 }, "geometry": { "type": "Point", "coordinates": [ 5.3520875, 35.140881 ] } },
{ "type": "Feature", "properties": { "REGION": "HAUTS PLATEAUX", "WILAYA": "BATNA", "COMMUNE": "DJEZZAR", "NOMBRE PLA": 113 }, "geometry": { "type": "Point", "coordinates": [ 5.3311653, 35.513893 ] } },
{ "type": "Feature", "properties": { "REGION": "HAUTS PLATEAUX", "WILAYA": "BATNA", "COMMUNE": "THENIET EL ABED", "NOMBRE PLA": 61 }, "geometry": { "type": "Point", "coordinates": [ 6.1833329, 35.25 ] } },
{ "type": "Feature", "properties": { "REGION": "HAUTS PLATEAUX", "WILAYA": "BATNA", "COMMUNE": "DJERMA", "NOMBRE PLA": 45 }, "geometry": { "type": "Point", "coordinates": [ 6.301343, 35.685143 ] } },
{ "type": "Feature", "properties": { "REGION": "HAUTS PLATEAUX", "WILAYA": "BATNA", "COMMUNE": "AIN TOUTA", "NOMBRE PLA": 404 }, "geometry": { "type": "Point", "coordinates": [ 5.9198389, 35.399109 ] } },
{ "type": "Feature", "properties": { "REGION": "HAUTS PLATEAUX", "WILAYA": "BATNA", "COMMUNE": "KSAR BELEZMA", "NOMBRE PLA": 32 }, "geometry": { "type": "Point", "coordinates": [ 5.8775964, 35.706562 ] } },
{ "type": "Feature", "properties": { "REGION": "HAUTS PLATEAUX", "WILAYA": "BATNA", "COMMUNE": "GOSBAT", "NOMBRE PLA": 43 }, "geometry": { "type": "Point", "coordinates": [ 5.4568133, 35.639198 ] } },
{ "type": "Feature", "properties": { "REGION": "HAUTS PLATEAUX", "WILAYA": "BATNA", "COMMUNE": "TALKHEMT", "NOMBRE PLA": 106 }, "geometry": { "type": "Point", "coordinates": [ 5.7510476, 35.712669 ] } },
{ "type": "Feature", "properties": { "REGION": "HAUTS PLATEAUX", "WILAYA": "BATNA", "COMMUNE": "BARIKA", "NOMBRE PLA": 1223 }, "geometry": { "type": "Point", "coordinates": [ 5.2893434, 35.384594 ] } },
{ "type": "Feature", "properties": { "REGION": "HAUTS PLATEAUX", "WILAYA": "BATNA", "COMMUNE": "OULED AOUF", "NOMBRE PLA": 5 }, "geometry": { "type": "Point", "coordinates": [ 5.7510476, 35.450954 ] } },
{ "type": "Feature", "properties": { "REGION": "HAUTS PLATEAUX", "WILAYA": "BATNA", "COMMUNE": "BATNA", "NOMBRE PLA": 4895 }, "geometry": { "type": "Point", "coordinates": [ 6.1739116, 35.56102 ] } },
{ "type": "Feature", "properties": { "REGION": "HAUTS PLATEAUX", "WILAYA": "BATNA", "COMMUNE": "ZANA EL BEIDA", "NOMBRE PLA": 162 }, "geometry": { "type": "Point", "coordinates": [ 6.1102943, 35.803757 ] } },
{ "type": "Feature", "properties": { "REGION": "HAUTS PLATEAUX", "WILAYA": "BATNA", "COMMUNE": "OULED SI SLIMANE", "NOMBRE PLA": 35 }, "geometry": { "type": "Point", "coordinates": [ 5.6668305, 35.585903 ] } },
{ "type": "Feature", "properties": { "REGION": "HAUTS PLATEAUX", "WILAYA": "BATNA", "COMMUNE": "BOUMAGUER", "NOMBRE PLA": 44 }, "geometry": { "type": "Point", "coordinates": [ 5.551228, 35.493061 ] } },
{ "type": "Feature", "properties": { "REGION": "HAUTS PLATEAUX", "WILAYA": "BATNA", "COMMUNE": "METKAOUAK", "NOMBRE PLA": 78 }, "geometry": { "type": "Point", "coordinates": [ 5.183641, 35.368748 ] } },
{ "type": "Feature", "properties": { "REGION": "HAUTS PLATEAUX", "WILAYA": "BATNA", "COMMUNE": "OUED TAGA", "NOMBRE PLA": 41 }, "geometry": { "type": "Point", "coordinates": [ 6.3438783, 35.421288 ] } },
{ "type": "Feature", "properties": { "REGION": "HAUTS PLATEAUX", "WILAYA": "BATNA", "COMMUNE": "TIGHANIMINE", "NOMBRE PLA": 25 }, "geometry": { "type": "Point", "coordinates": [ 6.2694607, 35.195553 ] } },
{ "type": "Feature", "properties": { "REGION": "HAUTS PLATEAUX", "WILAYA": "BATNA", "COMMUNE": "TILATOU", "NOMBRE PLA": 40 }, "geometry": { "type": "Point", "coordinates": [ 5.6247668, 35.28194 ] } },
{ "type": "Feature", "properties": { "REGION": "HAUTS PLATEAUX", "WILAYA": "BATNA", "COMMUNE": "OUED CHAABA", "NOMBRE PLA": 121 }, "geometry": { "type": "Point", "coordinates": [ 6.0467429, 35.523838 ] } },
{ "type": "Feature", "properties": { "REGION": "HAUTS PLATEAUX", "WILAYA": "BATNA", "COMMUNE": "INOUGHISSENE", "NOMBRE PLA": 12 }, "geometry": { "type": "Point", "coordinates": [ 6.5463157, 35.268444 ] } },
{ "type": "Feature", "properties": { "REGION": "HAUTS PLATEAUX", "WILAYA": "BATNA", "COMMUNE": "KIMMEL", "NOMBRE PLA": 1 }, "geometry": { "type": "Point", "coordinates": [ 6.4716582, 34.97665 ] } },
{ "type": "Feature", "properties": { "REGION": "HAUTS PLATEAUX", "WILAYA": "BATNA", "COMMUNE": "SERIANA", "NOMBRE PLA": 105 }, "geometry": { "type": "Point", "coordinates": [ 6.1739116, 35.691742 ] } },
{ "type": "Feature", "properties": { "REGION": "HAUTS PLATEAUX", "WILAYA": "BATNA", "COMMUNE": "TAZOULT", "NOMBRE PLA": 285 }, "geometry": { "type": "Point", "coordinates": [ 6.2588367, 35.513027 ] } },
{ "type": "Feature", "properties": { "REGION": "HAUTS PLATEAUX", "WILAYA": "BATNA", "COMMUNE": "FESDIS", "NOMBRE PLA": 114 }, "geometry": { "type": "Point", "coordinates": [ 6.2269764, 35.612785 ] } },
{ "type": "Feature", "properties": { "REGION": "HAUTS PLATEAUX", "WILAYA": "BATNA", "COMMUNE": "HIDOUSSA", "NOMBRE PLA": 1 }, "geometry": { "type": "Point", "coordinates": [ 5.9198389, 35.530128 ] } },
{ "type": "Feature", "properties": { "REGION": "HAUTS PLATEAUX", "WILAYA": "BATNA", "COMMUNE": "TIMGAD", "NOMBRE PLA": 88 }, "geometry": { "type": "Point", "coordinates": [ 6.5143089, 35.499508 ] } },
{ "type": "Feature", "properties": { "REGION": "HAUTS PLATEAUX", "WILAYA": "BATNA", "COMMUNE": "OUED EL MA", "NOMBRE PLA": 104 }, "geometry": { "type": "Point", "coordinates": [ 6.0044122, 35.656754 ] } },
{ "type": "Feature", "properties": { "REGION": "HAUTS PLATEAUX", "WILAYA": "BATNA", "COMMUNE": "LARBAA", "NOMBRE PLA": null }, "geometry": { "type": "Point", "coordinates": [ 6.1208925, 35.33445 ] } },
{ "type": "Feature", "properties": { "REGION": "HAUTS PLATEAUX", "WILAYA": "BATNA", "COMMUNE": "OULED FADEL", "NOMBRE PLA": 137 }, "geometry": { "type": "Point", "coordinates": [ 6.6851983, 35.533768 ] } },
{ "type": "Feature", "properties": { "REGION": "HAUTS PLATEAUX", "WILAYA": "BATNA", "COMMUNE": "GHASSIRA", "NOMBRE PLA": 11 }, "geometry": { "type": "Point", "coordinates": [ 6.2163596, 35.077755 ] } },
{ "type": "Feature", "properties": { "REGION": "HAUTS PLATEAUX", "WILAYA": "BATNA", "COMMUNE": "GUIGBA", "NOMBRE PLA": 42 }, "geometry": { "type": "Point", "coordinates": [ 5.5722299, 35.73196 ] } },
{ "type": "Feature", "properties": { "REGION": "HAUTS PLATEAUX", "WILAYA": "BATNA", "COMMUNE": "RAHBAT", "NOMBRE PLA": 43 }, "geometry": { "type": "Point", "coordinates": [ 5.656312, 35.728043 ] } },
{ "type": "Feature", "properties": { "REGION": "HAUTS PLATEAUX", "WILAYA": "BATNA", "COMMUNE": "AIN YAGOUT", "NOMBRE PLA": 159 }, "geometry": { "type": "Point", "coordinates": [ 6.4290361, 35.80888 ] } },
{ "type": "Feature", "properties": { "REGION": "HAUTS PLATEAUX", "WILAYA": "BATNA", "COMMUNE": "RAS EL AIOUN", "NOMBRE PLA": 107 }, "geometry": { "type": "Point", "coordinates": [ 5.5827336, 35.677021 ] } },
{ "type": "Feature", "properties": { "REGION": "HAUTS PLATEAUX", "WILAYA": "BATNA", "COMMUNE": "BOULEHILET", "NOMBRE PLA": 24 }, "geometry": { "type": "Point", "coordinates": [ 6.6424332, 35.753815 ] } },
{ "type": "Feature", "properties": { "REGION": "HAUTS PLATEAUX", "WILAYA": "BATNA", "COMMUNE": "BOUMIA", "NOMBRE PLA": 5 }, "geometry": { "type": "Point", "coordinates": [ 6.5143089, 35.717327 ] } },
{ "type": "Feature", "properties": { "REGION": "HAUTS PLATEAUX", "WILAYA": "BATNA", "COMMUNE": "TIGHARGHAR", "NOMBRE PLA": 13 }, "geometry": { "type": "Point", "coordinates": [ 5.9572368, 35.095665 ] } },
{ "type": "Feature", "properties": { "REGION": "HAUTS PLATEAUX", "WILAYA": "BATNA", "COMMUNE": "CHIR", "NOMBRE PLA": 30 }, "geometry": { "type": "Point", "coordinates": [ 6.1314926, 35.213562 ] } },
{ "type": "Feature", "properties": { "REGION": "HAUTS PLATEAUX", "WILAYA": "BATNA", "COMMUNE": "TAXLENT", "NOMBRE PLA": 28 }, "geometry": { "type": "Point", "coordinates": [ 5.793201, 35.579903 ] } },
{ "type": "Feature", "properties": { "REGION": "HAUTS PLATEAUX", "WILAYA": "BATNA", "COMMUNE": "OULED AMMAR", "NOMBRE PLA": 67 }, "geometry": { "type": "Point", "coordinates": [ 5.1640606, 35.477459 ] } },
{ "type": "Feature", "properties": { "REGION": "HAUTS PLATEAUX", "WILAYA": "BATNA", "COMMUNE": "TKOUT", "NOMBRE PLA": 56 }, "geometry": { "type": "Point", "coordinates": [ 6.3438783, 35.158825 ] } },
{ "type": "Feature", "properties": { "REGION": "HAUTS PLATEAUX", "WILAYA": "BATNA", "COMMUNE": "EL HASSI", "NOMBRE PLA": 137 }, "geometry": { "type": "Point", "coordinates": [ 5.9495659, 35.785248 ] } },
{ "type": "Feature", "properties": { "REGION": "HAUTS PLATEAUX", "WILAYA": "BATNA", "COMMUNE": "MAAFA", "NOMBRE PLA": 16 }, "geometry": { "type": "Point", "coordinates": [ 5.8775964, 35.269936 ] } },
{ "type": "Feature", "properties": { "REGION": "HAUTS PLATEAUX", "WILAYA": "BATNA", "COMMUNE": "FOUM TOUB", "NOMBRE PLA": 35 }, "geometry": { "type": "Point", "coordinates": [ 6.5143089, 35.368538 ] } },
{ "type": "Feature", "properties": { "REGION": "HAUTS PLATEAUX", "WILAYA": "BATNA", "COMMUNE": "AIN DJASSER", "NOMBRE PLA": 140 }, "geometry": { "type": "Point", "coordinates": [ 6.0044122, 35.83083 ] } },
{ "type": "Feature", "properties": { "REGION": "HAUTS PLATEAUX", "WILAYA": "BATNA", "COMMUNE": "SEFIANE", "NOMBRE PLA": 22 }, "geometry": { "type": "Point", "coordinates": [ 5.5932388, 35.425587 ] } },
{ "type": "Feature", "properties": { "REGION": "HAUTS PLATEAUX", "WILAYA": "BATNA", "COMMUNE": "ARRIS", "NOMBRE PLA": 193 }, "geometry": { "type": "Point", "coordinates": [ 6.354517, 35.300537 ] } },
{ "type": "Feature", "properties": { "REGION": "HAUTS PLATEAUX", "WILAYA": "BATNA", "COMMUNE": "ICHEMOUL", "NOMBRE PLA": 41 }, "geometry": { "type": "Point", "coordinates": [ 6.4290361, 35.285667 ] } },
{ "type": "Feature", "properties": { "REGION": "HAUTS PLATEAUX", "WILAYA": "BATNA", "COMMUNE": "MEROUANA", "NOMBRE PLA": 207 }, "geometry": { "type": "Point", "coordinates": [ 5.9092755, 35.628773 ] } },
{ "type": "Feature", "properties": { "REGION": "HAUTS PLATEAUX", "WILAYA": "BATNA", "COMMUNE": "LAZROU", "NOMBRE PLA": 15 }, "geometry": { "type": "Point", "coordinates": [ 6.301343, 35.772163 ] } },
{ "type": "Feature", "properties": { "REGION": "HAUTS PLATEAUX", "WILAYA": "BATNA", "COMMUNE": "EL MADHER", "NOMBRE PLA": 199 }, "geometry": { "type": "Point", "coordinates": [ 6.3864427, 35.637115 ] } },
{ "type": "Feature", "properties": { "REGION": "HAUTS PLATEAUX", "WILAYA": "BATNA", "COMMUNE": "OUYOUN EL ASSAFIR", "NOMBRE PLA": 55 }, "geometry": { "type": "Point", "coordinates": [ 6.3438783, 35.552204 ] } },
{ "type": "Feature", "properties": { "REGION": "HAUTS PLATEAUX", "WILAYA": "BATNA", "COMMUNE": "MENAA", "NOMBRE PLA": 60 }, "geometry": { "type": "Point", "coordinates": [ 6.0891032, 35.128059 ] } },
{ "type": "Feature", "properties": { "REGION": "HAUTS PLATEAUX", "WILAYA": "BATNA", "COMMUNE": "BOUZINA", "NOMBRE PLA": 106 }, "geometry": { "type": "Point", "coordinates": [ 6.0996976, 35.269894 ] } },
{ "type": "Feature", "properties": { "REGION": "HAUTS PLATEAUX", "WILAYA": "BORDJ BOU ARRERIDJ", "COMMUNE": "COLLA", "NOMBRE PLA": 125 }, "geometry": { "type": "Point", "coordinates": [ 4.6657028, 36.237415 ] } },
{ "type": "Feature", "properties": { "REGION": "HAUTS PLATEAUX", "WILAYA": "BORDJ BOU ARRERIDJ", "COMMUNE": "EL MAIN", "NOMBRE PLA": 17 }, "geometry": { "type": "Point", "coordinates": [ 4.7380171, 36.371986 ] } },
{ "type": "Feature", "properties": { "REGION": "HAUTS PLATEAUX", "WILAYA": "BORDJ BOU ARRERIDJ", "COMMUNE": "EL EUCH", "NOMBRE PLA": 318 }, "geometry": { "type": "Point", "coordinates": [ 4.6243749, 35.891777 ] } },
{ "type": "Feature", "properties": { "REGION": "HAUTS PLATEAUX", "WILAYA": "BORDJ BOU ARRERIDJ", "COMMUNE": "KSOUR", "NOMBRE PLA": 253 }, "geometry": { "type": "Point", "coordinates": [ 4.5956669, 35.99213 ] } },
{ "type": "Feature", "properties": { "REGION": "HAUTS PLATEAUX", "WILAYA": "BORDJ BOU ARRERIDJ", "COMMUNE": "HASNAOUA", "NOMBRE PLA": 253 }, "geometry": { "type": "Point", "coordinates": [ 4.7955346, 36.152069 ] } },
{ "type": "Feature", "properties": { "REGION": "HAUTS PLATEAUX", "WILAYA": "BORDJ BOU ARRERIDJ", "COMMUNE": "EL ANSEUR", "NOMBRE PLA": 374 }, "geometry": { "type": "Point", "coordinates": [ 4.8187308, 36.040539 ] } },
{ "type": "Feature", "properties": { "REGION": "HAUTS PLATEAUX", "WILAYA": "BORDJ BOU ARRERIDJ", "COMMUNE": "EL HAMMADIA", "NOMBRE PLA": 680 }, "geometry": { "type": "Point", "coordinates": [ 4.7795148, 35.983528 ] } },
{ "type": "Feature", "properties": { "REGION": "HAUTS PLATEAUX", "WILAYA": "BORDJ BOU ARRERIDJ", "COMMUNE": "OULED BRAHEM", "NOMBRE PLA": 120 }, "geometry": { "type": "Point", "coordinates": [ 5.0806918, 35.873383 ] } },
{ "type": "Feature", "properties": { "REGION": "HAUTS PLATEAUX", "WILAYA": "BORDJ BOU ARRERIDJ", "COMMUNE": "EL MHIR", "NOMBRE PLA": 269 }, "geometry": { "type": "Point", "coordinates": [ 4.3895593, 36.118435 ] } },
{ "type": "Feature", "properties": { "REGION": "HAUTS PLATEAUX", "WILAYA": "BORDJ BOU ARRERIDJ", "COMMUNE": "AIN TAGHROUT", "NOMBRE PLA": 225 }, "geometry": { "type": "Point", "coordinates": [ 5.1223607, 36.13213 ] } },
{ "type": "Feature", "properties": { "REGION": "HAUTS PLATEAUX", "WILAYA": "BORDJ BOU ARRERIDJ", "COMMUNE": "SIDI EMBAREK", "NOMBRE PLA": 287 }, "geometry": { "type": "Point", "coordinates": [ 4.9143238, 36.097466 ] } },
{ "type": "Feature", "properties": { "REGION": "HAUTS PLATEAUX", "WILAYA": "BORDJ BOU ARRERIDJ", "COMMUNE": "GHILASSA", "NOMBRE PLA": 165 }, "geometry": { "type": "Point", "coordinates": [ 4.9039426, 35.848083 ] } },
{ "type": "Feature", "properties": { "REGION": "HAUTS PLATEAUX", "WILAYA": "BORDJ BOU ARRERIDJ", "COMMUNE": "OULED DAHMANE", "NOMBRE PLA": 138 }, "geometry": { "type": "Point", "coordinates": [ 4.770164, 36.221489 ] } },
{ "type": "Feature", "properties": { "REGION": "HAUTS PLATEAUX", "WILAYA": "BORDJ BOU ARRERIDJ", "COMMUNE": "OULED SIDI BRAHIM", "NOMBRE PLA": 30 }, "geometry": { "type": "Point", "coordinates": [ 4.3340554, 36.228992 ] } },
{ "type": "Feature", "properties": { "REGION": "HAUTS PLATEAUX", "WILAYA": "BORDJ BOU ARRERIDJ", "COMMUNE": "RAS EL OUED", "NOMBRE PLA": 629 }, "geometry": { "type": "Point", "coordinates": [ 5.0356951, 35.947029 ] } },
{ "type": "Feature", "properties": { "REGION": "HAUTS PLATEAUX", "WILAYA": "BORDJ BOU ARRERIDJ", "COMMUNE": "BORDJ GHDIR", "NOMBRE PLA": 381 }, "geometry": { "type": "Point", "coordinates": [ 4.9247074, 35.912479 ] } },
{ "type": "Feature", "properties": { "REGION": "HAUTS PLATEAUX", "WILAYA": "BORDJ BOU ARRERIDJ", "COMMUNE": "BORDJ ZEMOURA", "NOMBRE PLA": 178 }, "geometry": { "type": "Point", "coordinates": [ 4.8831849, 36.261227 ] } },
{ "type": "Feature", "properties": { "REGION": "HAUTS PLATEAUX", "WILAYA": "BORDJ BOU ARRERIDJ", "COMMUNE": "MEDJANA", "NOMBRE PLA": 443 }, "geometry": { "type": "Point", "coordinates": [ 4.6714821, 36.134052 ] } },
{ "type": "Feature", "properties": { "REGION": "HAUTS PLATEAUX", "WILAYA": "BORDJ BOU ARRERIDJ", "COMMUNE": "BORDJ BOU ARRERIDJ", "NOMBRE PLA": 4757 }, "geometry": { "type": "Point", "coordinates": [ 4.7564044, 36.070419 ] } },
{ "type": "Feature", "properties": { "REGION": "HAUTS PLATEAUX", "WILAYA": "BORDJ BOU ARRERIDJ", "COMMUNE": "RABTA", "NOMBRE PLA": 256 }, "geometry": { "type": "Point", "coordinates": [ 4.7795148, 35.896591 ] } },
{ "type": "Feature", "properties": { "REGION": "HAUTS PLATEAUX", "WILAYA": "BORDJ BOU ARRERIDJ", "COMMUNE": "TIXTER", "NOMBRE PLA": 170 }, "geometry": { "type": "Point", "coordinates": [ 5.1223607, 36.045387 ] } },
{ "type": "Feature", "properties": { "REGION": "HAUTS PLATEAUX", "WILAYA": "BORDJ BOU ARRERIDJ", "COMMUNE": "TAGLAIT", "NOMBRE PLA": 33 }, "geometry": { "type": "Point", "coordinates": [ 4.9870491, 35.801147 ] } },
{ "type": "Feature", "properties": { "REGION": "HAUTS PLATEAUX", "WILAYA": "BORDJ BOU ARRERIDJ", "COMMUNE": "EL ACHIR", "NOMBRE PLA": 560 }, "geometry": { "type": "Point", "coordinates": [ 4.6243749, 36.06559 ] } },
{ "type": "Feature", "properties": { "REGION": "HAUTS PLATEAUX", "WILAYA": "BORDJ BOU ARRERIDJ", "COMMUNE": "BIR KASDALI", "NOMBRE PLA": 232 }, "geometry": { "type": "Point", "coordinates": [ 5.0276623, 36.146339 ] } },
{ "type": "Feature", "properties": { "REGION": "HAUTS PLATEAUX", "WILAYA": "BORDJ BOU ARRERIDJ", "COMMUNE": "HARAZA", "NOMBRE PLA": 102 }, "geometry": { "type": "Point", "coordinates": [ 4.2538452, 36.166058 ] } },
{ "type": "Feature", "properties": { "REGION": "HAUTS PLATEAUX", "WILAYA": "BORDJ BOU ARRERIDJ", "COMMUNE": "MANSOURA", "NOMBRE PLA": 515 }, "geometry": { "type": "Point", "coordinates": [ 4.4387898, 36.137676 ] } },
{ "type": "Feature", "properties": { "REGION": "HAUTS PLATEAUX", "WILAYA": "BORDJ BOU ARRERIDJ", "COMMUNE": "BEN DAOUD", "NOMBRE PLA": 224 }, "geometry": { "type": "Point", "coordinates": [ 4.141995, 36.067387 ] } },
{ "type": "Feature", "properties": { "REGION": "HAUTS PLATEAUX", "WILAYA": "BORDJ BOU ARRERIDJ", "COMMUNE": "TESMART", "NOMBRE PLA": 81 }, "geometry": { "type": "Point", "coordinates": [ 4.8002334, 36.264576 ] } },
{ "type": "Feature", "properties": { "REGION": "HAUTS PLATEAUX", "WILAYA": "BORDJ BOU ARRERIDJ", "COMMUNE": "THENIET EL ANSEUR", "NOMBRE PLA": 78 }, "geometry": { "type": "Point", "coordinates": [ 5.04, 36.1035 ] } },
{ "type": "Feature", "properties": { "REGION": "HAUTS PLATEAUX", "WILAYA": "BORDJ BOU ARRERIDJ", "COMMUNE": "TAFREG", "NOMBRE PLA": 23 }, "geometry": { "type": "Point", "coordinates": [ 4.711308, 36.306698 ] } },
{ "type": "Feature", "properties": { "REGION": "HAUTS PLATEAUX", "WILAYA": "BORDJ BOU ARRERIDJ", "COMMUNE": "AIN TASSERA", "NOMBRE PLA": 246 }, "geometry": { "type": "Point", "coordinates": [ 5.002327, 36.036751 ] } },
{ "type": "Feature", "properties": { "REGION": "HAUTS PLATEAUX", "WILAYA": "BORDJ BOU ARRERIDJ", "COMMUNE": "DJAAFRA", "NOMBRE PLA": 109 }, "geometry": { "type": "Point", "coordinates": [ 4.662837, 36.292271 ] } },
{ "type": "Feature", "properties": { "REGION": "HAUTS PLATEAUX", "WILAYA": "BORDJ BOU ARRERIDJ", "COMMUNE": "BELIMOUR", "NOMBRE PLA": 243 }, "geometry": { "type": "Point", "coordinates": [ 4.9143238, 35.967232 ] } },
{ "type": "Feature", "properties": { "REGION": "HAUTS PLATEAUX", "WILAYA": "BORDJ BOU ARRERIDJ", "COMMUNE": "KHELIL", "NOMBRE PLA": 455 }, "geometry": { "type": "Point", "coordinates": [ 4.9974461, 36.224049 ] } },
{ "type": "Feature", "properties": { "REGION": "HAUTS PLATEAUX", "WILAYA": "DJELFA", "COMMUNE": "GUETTARA", "NOMBRE PLA": 20 }, "geometry": { "type": "Point", "coordinates": [ 4.6850858, 33.161095 ] } },
{ "type": "Feature", "properties": { "REGION": "HAUTS PLATEAUX", "WILAYA": "DJELFA", "COMMUNE": "ZAAFRANE", "NOMBRE PLA": 6 }, "geometry": { "type": "Point", "coordinates": [ 2.8502302, 34.853977 ] } },
{ "type": "Feature", "properties": { "REGION": "HAUTS PLATEAUX", "WILAYA": "DJELFA", "COMMUNE": "AMOURA", "NOMBRE PLA": null }, "geometry": { "type": "Point", "coordinates": [ 3.869348, 34.354725 ] } },
{ "type": "Feature", "properties": { "REGION": "HAUTS PLATEAUX", "WILAYA": "DJELFA", "COMMUNE": "FEIDH EL BOTMA", "NOMBRE PLA": 8 }, "geometry": { "type": "Point", "coordinates": [ 3.7816093, 34.530487 ] } },
{ "type": "Feature", "properties": { "REGION": "HAUTS PLATEAUX", "WILAYA": "DJELFA", "COMMUNE": "HASSI BAHBAH", "NOMBRE PLA": 165 }, "geometry": { "type": "Point", "coordinates": [ 3.0275803, 35.078228 ] } },
{ "type": "Feature", "properties": { "REGION": "HAUTS PLATEAUX", "WILAYA": "DJELFA", "COMMUNE": "MLILIHA", "NOMBRE PLA": 16 }, "geometry": { "type": "Point", "coordinates": [ 3.4813979, 34.756252 ] } },
{ "type": "Feature", "properties": { "REGION": "HAUTS PLATEAUX", "WILAYA": "DJELFA", "COMMUNE": "SIDI LAADJEL", "NOMBRE PLA": 12 }, "geometry": { "type": "Point", "coordinates": [ 2.514842, 35.435673 ] } },
{ "type": "Feature", "properties": { "REGION": "HAUTS PLATEAUX", "WILAYA": "DJELFA", "COMMUNE": "OUM LAADHAM", "NOMBRE PLA": null }, "geometry": { "type": "Point", "coordinates": [ 4.5302143, 33.720612 ] } },
{ "type": "Feature", "properties": { "REGION": "HAUTS PLATEAUX", "WILAYA": "DJELFA", "COMMUNE": "DOUIS", "NOMBRE PLA": 4 }, "geometry": { "type": "Point", "coordinates": [ 2.706634, 34.373924 ] } },
{ "type": "Feature", "properties": { "REGION": "HAUTS PLATEAUX", "WILAYA": "DJELFA", "COMMUNE": "SIDI BAIZID", "NOMBRE PLA": 2 }, "geometry": { "type": "Point", "coordinates": [ 3.432168, 35.059242 ] } },
{ "type": "Feature", "properties": { "REGION": "HAUTS PLATEAUX", "WILAYA": "DJELFA", "COMMUNE": "AIN FEKKA", "NOMBRE PLA": 31 }, "geometry": { "type": "Point", "coordinates": [ 3.5407908, 35.470245 ] } },
{ "type": "Feature", "properties": { "REGION": "HAUTS PLATEAUX", "WILAYA": "DJELFA", "COMMUNE": "AIN EL IBEL", "NOMBRE PLA": 60 }, "geometry": { "type": "Point", "coordinates": [ 3.2256856, 34.352528 ] } },
{ "type": "Feature", "properties": { "REGION": "HAUTS PLATEAUX", "WILAYA": "DJELFA", "COMMUNE": "BENI YAGOUB", "NOMBRE PLA": 8 }, "geometry": { "type": "Point", "coordinates": [ 2.7833331, 34.466667 ] } },
{ "type": "Feature", "properties": { "REGION": "HAUTS PLATEAUX", "WILAYA": "DJELFA", "COMMUNE": "BIRINE", "NOMBRE PLA": 63 }, "geometry": { "type": "Point", "coordinates": [ 3.2231727, 35.62672 ] } },
{ "type": "Feature", "properties": { "REGION": "HAUTS PLATEAUX", "WILAYA": "DJELFA", "COMMUNE": "BOUIRA LAHDAB", "NOMBRE PLA": 29 }, "geometry": { "type": "Point", "coordinates": [ 3.1403255, 35.24292 ] } },
{ "type": "Feature", "properties": { "REGION": "HAUTS PLATEAUX", "WILAYA": "DJELFA", "COMMUNE": "TADMIT", "NOMBRE PLA": 51 }, "geometry": { "type": "Point", "coordinates": [ 2.9833331, 34.283333 ] } },
{ "type": "Feature", "properties": { "REGION": "HAUTS PLATEAUX", "WILAYA": "DJELFA", "COMMUNE": "BENHAR", "NOMBRE PLA": 60 }, "geometry": { "type": "Point", "coordinates": [ 3.0113165, 35.485939 ] } },
{ "type": "Feature", "properties": { "REGION": "HAUTS PLATEAUX", "WILAYA": "DJELFA", "COMMUNE": "EL GUEDDID", "NOMBRE PLA": 8 }, "geometry": { "type": "Point", "coordinates": [ 3.5986111, 34.691113 ] } },
{ "type": "Feature", "properties": { "REGION": "HAUTS PLATEAUX", "WILAYA": "DJELFA", "COMMUNE": "HAD SAHARY", "NOMBRE PLA": 90 }, "geometry": { "type": "Point", "coordinates": [ 3.3615644, 35.352154 ] } },
{ "type": "Feature", "properties": { "REGION": "HAUTS PLATEAUX", "WILAYA": "DJELFA", "COMMUNE": "DELDOUL", "NOMBRE PLA": 15 }, "geometry": { "type": "Point", "coordinates": [ 3.2565715, 34.20805 ] } },
{ "type": "Feature", "properties": { "REGION": "HAUTS PLATEAUX", "WILAYA": "DJELFA", "COMMUNE": "DJELFA", "NOMBRE PLA": 839 }, "geometry": { "type": "Point", "coordinates": [ 3.2684214, 34.675171 ] } },
{ "type": "Feature", "properties": { "REGION": "HAUTS PLATEAUX", "WILAYA": "DJELFA", "COMMUNE": "AIN MAABED", "NOMBRE PLA": 29 }, "geometry": { "type": "Point", "coordinates": [ 3.1328011, 34.805691 ] } },
{ "type": "Feature", "properties": { "REGION": "HAUTS PLATEAUX", "WILAYA": "DJELFA", "COMMUNE": "MOUADJEBAR", "NOMBRE PLA": 32 }, "geometry": { "type": "Point", "coordinates": [ 3.4675076, 34.50658 ] } },
{ "type": "Feature", "properties": { "REGION": "HAUTS PLATEAUX", "WILAYA": "DJELFA", "COMMUNE": "HASSI EL EUCH", "NOMBRE PLA": 2 }, "geometry": { "type": "Point", "coordinates": [ 3.2533338, 35.154842 ] } },
{ "type": "Feature", "properties": { "REGION": "HAUTS PLATEAUX", "WILAYA": "DJELFA", "COMMUNE": "MESSAAD", "NOMBRE PLA": 106 }, "geometry": { "type": "Point", "coordinates": [ 3.4952919, 34.153667 ] } },
{ "type": "Feature", "properties": { "REGION": "HAUTS PLATEAUX", "WILAYA": "DJELFA", "COMMUNE": "AIN OUESSARA", "NOMBRE PLA": 296 }, "geometry": { "type": "Point", "coordinates": [ 2.9076095, 35.454266 ] } },
{ "type": "Feature", "properties": { "REGION": "HAUTS PLATEAUX", "WILAYA": "DJELFA", "COMMUNE": "HASSI FDOUL", "NOMBRE PLA": 63 }, "geometry": { "type": "Point", "coordinates": [ 2.2187476, 35.441456 ] } },
{ "type": "Feature", "properties": { "REGION": "HAUTS PLATEAUX", "WILAYA": "DJELFA", "COMMUNE": "ZAKKAR", "NOMBRE PLA": 2 }, "geometry": { "type": "Point", "coordinates": [ 3.3250413, 34.431622 ] } },
{ "type": "Feature", "properties": { "REGION": "HAUTS PLATEAUX", "WILAYA": "DJELFA", "COMMUNE": "EL IDRISSIA", "NOMBRE PLA": 3 }, "geometry": { "type": "Point", "coordinates": [ 2.524745, 34.454849 ] } },
{ "type": "Feature", "properties": { "REGION": "HAUTS PLATEAUX", "WILAYA": "DJELFA", "COMMUNE": "GUERNINI", "NOMBRE PLA": 7 }, "geometry": { "type": "Point", "coordinates": [ 2.6822357, 35.200367 ] } },
{ "type": "Feature", "properties": { "REGION": "HAUTS PLATEAUX", "WILAYA": "DJELFA", "COMMUNE": "CHAREF", "NOMBRE PLA": 20 }, "geometry": { "type": "Point", "coordinates": [ 2.8003917, 34.617687 ] } },
{ "type": "Feature", "properties": { "REGION": "HAUTS PLATEAUX", "WILAYA": "DJELFA", "COMMUNE": "SED RAHAL", "NOMBRE PLA": 8 }, "geometry": { "type": "Point", "coordinates": [ 3.2256856, 33.952408 ] } },
{ "type": "Feature", "properties": { "REGION": "HAUTS PLATEAUX", "WILAYA": "DJELFA", "COMMUNE": "DAR CHIOUKH", "NOMBRE PLA": 20 }, "geometry": { "type": "Point", "coordinates": [ 3.4851868, 34.895367 ] } },
{ "type": "Feature", "properties": { "REGION": "HAUTS PLATEAUX", "WILAYA": "DJELFA", "COMMUNE": "SELMANA", "NOMBRE PLA": 5 }, "geometry": { "type": "Point", "coordinates": [ 3.5991845, 34.176285 ] } },
{ "type": "Feature", "properties": { "REGION": "HAUTS PLATEAUX", "WILAYA": "DJELFA", "COMMUNE": "EL KHEMIS", "NOMBRE PLA": 13 }, "geometry": { "type": "Point", "coordinates": [ 3.0350001, 35.159199 ] } },
{ "type": "Feature", "properties": { "REGION": "HAUTS PLATEAUX", "WILAYA": "DJELFA", "COMMUNE": "AIN CHOUHADA", "NOMBRE PLA": 4 }, "geometry": { "type": "Point", "coordinates": [ 2.522269, 34.241329 ] } },
{ "type": "Feature", "properties": { "REGION": "HAUTS PLATEAUX", "WILAYA": "EL BAYADH", "COMMUNE": "BREZINA", "NOMBRE PLA": 67 }, "geometry": { "type": "Point", "coordinates": [ 1.2586654, 33.097805 ] } },
{ "type": "Feature", "properties": { "REGION": "HAUTS PLATEAUX", "WILAYA": "EL BAYADH", "COMMUNE": "CHEGUIG", "NOMBRE PLA": null }, "geometry": { "type": "Point", "coordinates": [ 1.42, 33.9445 ] } },
{ "type": "Feature", "properties": { "REGION": "HAUTS PLATEAUX", "WILAYA": "EL BAYADH", "COMMUNE": "EL KHEITHER", "NOMBRE PLA": 19 }, "geometry": { "type": "Point", "coordinates": [ 0.070005096, 34.136482 ] } },
{ "type": "Feature", "properties": { "REGION": "HAUTS PLATEAUX", "WILAYA": "EL BAYADH", "COMMUNE": "BOUSSEMGHOUN", "NOMBRE PLA": 7 }, "geometry": { "type": "Point", "coordinates": [ 0.0233208, 32.870491 ] } },
{ "type": "Feature", "properties": { "REGION": "HAUTS PLATEAUX", "WILAYA": "EL BAYADH", "COMMUNE": "SIDI AMEUR", "NOMBRE PLA": 4 }, "geometry": { "type": "Point", "coordinates": [ 1.4362206, 33.768593 ] } },
{ "type": "Feature", "properties": { "REGION": "HAUTS PLATEAUX", "WILAYA": "EL BAYADH", "COMMUNE": "EL BAYADH", "NOMBRE PLA": 271 }, "geometry": { "type": "Point", "coordinates": [ 1.0203224, 33.658138 ] } },
{ "type": "Feature", "properties": { "REGION": "HAUTS PLATEAUX", "WILAYA": "EL BAYADH", "COMMUNE": "BOUGTOUB", "NOMBRE PLA": 46 }, "geometry": { "type": "Point", "coordinates": [ 0.091031604, 34.039047 ] } },
{ "type": "Feature", "properties": { "REGION": "HAUTS PLATEAUX", "WILAYA": "EL BAYADH", "COMMUNE": "TOUSMOULINE", "NOMBRE PLA": 1 }, "geometry": { "type": "Point", "coordinates": [ 0.31132779, 33.647957 ] } },
{ "type": "Feature", "properties": { "REGION": "HAUTS PLATEAUX", "WILAYA": "EL BAYADH", "COMMUNE": "SIDI SLIMANE", "NOMBRE PLA": 8 }, "geometry": { "type": "Point", "coordinates": [ 1.7271179, 33.831879 ] } },
{ "type": "Feature", "properties": { "REGION": "HAUTS PLATEAUX", "WILAYA": "EL BAYADH", "COMMUNE": "EL ABIODH SIDI CHEIKH", "NOMBRE PLA": 43 }, "geometry": { "type": "Point", "coordinates": [ 0.53996313, 32.903156 ] } },
{ "type": "Feature", "properties": { "REGION": "HAUTS PLATEAUX", "WILAYA": "EL BAYADH", "COMMUNE": "AIN EL ORAK", "NOMBRE PLA": 10 }, "geometry": { "type": "Point", "coordinates": [ 0.73902452, 33.408127 ] } },
{ "type": "Feature", "properties": { "REGION": "HAUTS PLATEAUX", "WILAYA": "EL BAYADH", "COMMUNE": "EL MEHARA", "NOMBRE PLA": 4 }, "geometry": { "type": "Point", "coordinates": [ 0.36424369, 33.313007 ] } },
{ "type": "Feature", "properties": { "REGION": "HAUTS PLATEAUX", "WILAYA": "EL BAYADH", "COMMUNE": "ROGASSA", "NOMBRE PLA": 5 }, "geometry": { "type": "Point", "coordinates": [ 0.92713672, 34.01889 ] } },
{ "type": "Feature", "properties": { "REGION": "HAUTS PLATEAUX", "WILAYA": "EL BAYADH", "COMMUNE": "KRAKDA", "NOMBRE PLA": 11 }, "geometry": { "type": "Point", "coordinates": [ 1.398, 33.189301 ] } },
{ "type": "Feature", "properties": { "REGION": "HAUTS PLATEAUX", "WILAYA": "EL BAYADH", "COMMUNE": "STITTEN", "NOMBRE PLA": 4 }, "geometry": { "type": "Point", "coordinates": [ 1.2506002, 33.834816 ] } },
{ "type": "Feature", "properties": { "REGION": "HAUTS PLATEAUX", "WILAYA": "EL BAYADH", "COMMUNE": "EL BNOUD", "NOMBRE PLA": 53 }, "geometry": { "type": "Point", "coordinates": [ 0.24440379, 32.311932 ] } },
{ "type": "Feature", "properties": { "REGION": "HAUTS PLATEAUX", "WILAYA": "EL BAYADH", "COMMUNE": "KEF EL AHMAR", "NOMBRE PLA": 28 }, "geometry": { "type": "Point", "coordinates": [ 0.64107722, 33.844997 ] } },
{ "type": "Feature", "properties": { "REGION": "HAUTS PLATEAUX", "WILAYA": "EL BAYADH", "COMMUNE": "GHASSOUL", "NOMBRE PLA": 14 }, "geometry": { "type": "Point", "coordinates": [ 1.2001181, 33.379307 ] } },
{ "type": "Feature", "properties": { "REGION": "HAUTS PLATEAUX", "WILAYA": "EL BAYADH", "COMMUNE": "HADJ MECHRI BOUALEM", "NOMBRE PLA": 11 }, "geometry": { "type": "Point", "coordinates": [ 1.5329678, 33.728329 ] } },
{ "type": "Feature", "properties": { "REGION": "HAUTS PLATEAUX", "WILAYA": "EL BAYADH", "COMMUNE": "ARBAOUAT", "NOMBRE PLA": 4 }, "geometry": { "type": "Point", "coordinates": [ 0.58490241, 33.091602 ] } },
{ "type": "Feature", "properties": { "REGION": "HAUTS PLATEAUX", "WILAYA": "EL BAYADH", "COMMUNE": "CHELLALA", "NOMBRE PLA": 7 }, "geometry": { "type": "Point", "coordinates": [ 0.0606637, 33.03949 ] } },
{ "type": "Feature", "properties": { "REGION": "HAUTS PLATEAUX", "WILAYA": "EL BAYADH", "COMMUNE": "SIDI TIFOUR", "NOMBRE PLA": 4 }, "geometry": { "type": "Point", "coordinates": [ 1.683333, 33.716667 ] } },
{ "type": "Feature", "properties": { "REGION": "HAUTS PLATEAUX", "WILAYA": "KHENCHELA", "COMMUNE": "REMILA", "NOMBRE PLA": 32 }, "geometry": { "type": "Point", "coordinates": [ 6.8981085, 35.572159 ] } },
{ "type": "Feature", "properties": { "REGION": "HAUTS PLATEAUX", "WILAYA": "KHENCHELA", "COMMUNE": "KAIS", "NOMBRE PLA": 205 }, "geometry": { "type": "Point", "coordinates": [ 6.9262805, 35.492916 ] } },
{ "type": "Feature", "properties": { "REGION": "HAUTS PLATEAUX", "WILAYA": "KHENCHELA", "COMMUNE": "TAMZA", "NOMBRE PLA": 40 }, "geometry": { "type": "Point", "coordinates": [ 6.833333, 35.316666 ] } },
{ "type": "Feature", "properties": { "REGION": "HAUTS PLATEAUX", "WILAYA": "KHENCHELA", "COMMUNE": "EL HAMMA", "NOMBRE PLA": 81 }, "geometry": { "type": "Point", "coordinates": [ 7.0848064, 35.46463 ] } },
{ "type": "Feature", "properties": { "REGION": "HAUTS PLATEAUX", "WILAYA": "KHENCHELA", "COMMUNE": "TAOUZIANAT", "NOMBRE PLA": 19 }, "geometry": { "type": "Point", "coordinates": [ 6.2176867, 35.262527 ] } },
{ "type": "Feature", "properties": { "REGION": "HAUTS PLATEAUX", "WILAYA": "KHENCHELA", "COMMUNE": "MTOUSSA", "NOMBRE PLA": 16 }, "geometry": { "type": "Point", "coordinates": [ 7.245059, 35.600773 ] } },
{ "type": "Feature", "properties": { "REGION": "HAUTS PLATEAUX", "WILAYA": "KHENCHELA", "COMMUNE": "BABAR", "NOMBRE PLA": 74 }, "geometry": { "type": "Point", "coordinates": [ 7.1009488, 35.168808 ] } },
{ "type": "Feature", "properties": { "REGION": "HAUTS PLATEAUX", "WILAYA": "KHENCHELA", "COMMUNE": "EL MAHMAL", "NOMBRE PLA": 75 }, "geometry": { "type": "Point", "coordinates": [ 7.1250095, 35.448441 ] } },
{ "type": "Feature", "properties": { "REGION": "HAUTS PLATEAUX", "WILAYA": "KHENCHELA", "COMMUNE": "CHERCHAR", "NOMBRE PLA": 101 }, "geometry": { "type": "Point", "coordinates": [ 7.0095263, 35.037258 ] } },
{ "type": "Feature", "properties": { "REGION": "HAUTS PLATEAUX", "WILAYA": "KHENCHELA", "COMMUNE": "AIN TOUILA", "NOMBRE PLA": 41 }, "geometry": { "type": "Point", "coordinates": [ 7.381371, 35.435944 ] } },
{ "type": "Feature", "properties": { "REGION": "HAUTS PLATEAUX", "WILAYA": "KHENCHELA", "COMMUNE": "BOUHMAMA", "NOMBRE PLA": 9 }, "geometry": { "type": "Point", "coordinates": [ 6.7467227, 35.320282 ] } },
{ "type": "Feature", "properties": { "REGION": "HAUTS PLATEAUX", "WILAYA": "KHENCHELA", "COMMUNE": "EL OUELDJA", "NOMBRE PLA": 2 }, "geometry": { "type": "Point", "coordinates": [ 6.6831927, 34.915115 ] } },
{ "type": "Feature", "properties": { "REGION": "HAUTS PLATEAUX", "WILAYA": "KHENCHELA", "COMMUNE": "DJELLAL", "NOMBRE PLA": 5 }, "geometry": { "type": "Point", "coordinates": [ 6.8927436, 34.919189 ] } },
{ "type": "Feature", "properties": { "REGION": "HAUTS PLATEAUX", "WILAYA": "KHENCHELA", "COMMUNE": "YABOUS", "NOMBRE PLA": 24 }, "geometry": { "type": "Point", "coordinates": [ 6.6437688, 35.411987 ] } },
{ "type": "Feature", "properties": { "REGION": "HAUTS PLATEAUX", "WILAYA": "KHENCHELA", "COMMUNE": "OULED RECHACHE", "NOMBRE PLA": 72 }, "geometry": { "type": "Point", "coordinates": [ 7.3524156, 35.29562 ] } },
{ "type": "Feature", "properties": { "REGION": "HAUTS PLATEAUX", "WILAYA": "KHENCHELA", "COMMUNE": "BAGHAI", "NOMBRE PLA": 22 }, "geometry": { "type": "Point", "coordinates": [ 7.1130581, 35.521542 ] } },
{ "type": "Feature", "properties": { "REGION": "HAUTS PLATEAUX", "WILAYA": "KHENCHELA", "COMMUNE": "KHIRANE", "NOMBRE PLA": 25 }, "geometry": { "type": "Point", "coordinates": [ 6.7607751, 34.998611 ] } },
{ "type": "Feature", "properties": { "REGION": "HAUTS PLATEAUX", "WILAYA": "KHENCHELA", "COMMUNE": "CHELIA", "NOMBRE PLA": 4 }, "geometry": { "type": "Point", "coordinates": [ 6.7801847, 35.363468 ] } },
{ "type": "Feature", "properties": { "REGION": "HAUTS PLATEAUX", "WILAYA": "KHENCHELA", "COMMUNE": "MSARA", "NOMBRE PLA": 5 }, "geometry": { "type": "Point", "coordinates": [ 6.5743351, 35.238213 ] } },
{ "type": "Feature", "properties": { "REGION": "HAUTS PLATEAUX", "WILAYA": "KHENCHELA", "COMMUNE": "ENSIGHA", "NOMBRE PLA": 24 }, "geometry": { "type": "Point", "coordinates": [ 7.1419954, 35.395142 ] } },
{ "type": "Feature", "properties": { "REGION": "HAUTS PLATEAUX", "WILAYA": "KHENCHELA", "COMMUNE": "KHENCHELA", "NOMBRE PLA": 733 }, "geometry": { "type": "Point", "coordinates": [ 7.1467071, 35.430996 ] } },
{ "type": "Feature", "properties": { "REGION": "HAUTS PLATEAUX", "WILAYA": "M SILA", "COMMUNE": "MAARIF", "NOMBRE PLA": 114 }, "geometry": { "type": "Point", "coordinates": [ 4.2948885, 35.38018 ] } },
{ "type": "Feature", "properties": { "REGION": "HAUTS PLATEAUX", "WILAYA": "M SILA", "COMMUNE": "EL HOUAMED", "NOMBRE PLA": 65 }, "geometry": { "type": "Point", "coordinates": [ 4.603723, 35.171566 ] } },
{ "type": "Feature", "properties": { "REGION": "HAUTS PLATEAUX", "WILAYA": "M SILA", "COMMUNE": "TAMSA", "NOMBRE PLA": 20 }, "geometry": { "type": "Point", "coordinates": [ 3.9266503, 35.173393 ] } },
{ "type": "Feature", "properties": { "REGION": "HAUTS PLATEAUX", "WILAYA": "M SILA", "COMMUNE": "ZERZOUR", "NOMBRE PLA": 42 }, "geometry": { "type": "Point", "coordinates": [ 4.8313255, 35.052937 ] } },
{ "type": "Feature", "properties": { "REGION": "HAUTS PLATEAUX", "WILAYA": "M SILA", "COMMUNE": "AIN KHADRA", "NOMBRE PLA": 131 }, "geometry": { "type": "Point", "coordinates": [ 4.9558697, 35.529865 ] } },
{ "type": "Feature", "properties": { "REGION": "HAUTS PLATEAUX", "WILAYA": "M SILA", "COMMUNE": "OULED DERRADJ", "NOMBRE PLA": 258 }, "geometry": { "type": "Point", "coordinates": [ 4.7898731, 35.62389 ] } },
{ "type": "Feature", "properties": { "REGION": "HAUTS PLATEAUX", "WILAYA": "M SILA", "COMMUNE": "BELAIBA", "NOMBRE PLA": 163 }, "geometry": { "type": "Point", "coordinates": [ 5.1953554, 35.57439 ] } },
{ "type": "Feature", "properties": { "REGION": "HAUTS PLATEAUX", "WILAYA": "M SILA", "COMMUNE": "BENI ILMENE", "NOMBRE PLA": 61 }, "geometry": { "type": "Point", "coordinates": [ 4.0899911, 35.954617 ] } },
{ "type": "Feature", "properties": { "REGION": "HAUTS PLATEAUX", "WILAYA": "M SILA", "COMMUNE": "AIN EL MELH", "NOMBRE PLA": 58 }, "geometry": { "type": "Point", "coordinates": [ 4.1649542, 34.847389 ] } },
{ "type": "Feature", "properties": { "REGION": "HAUTS PLATEAUX", "WILAYA": "M SILA", "COMMUNE": "AIN EL HADJEL", "NOMBRE PLA": 162 }, "geometry": { "type": "Point", "coordinates": [ 3.8451731, 35.613995 ] } },
{ "type": "Feature", "properties": { "REGION": "HAUTS PLATEAUX", "WILAYA": "M SILA", "COMMUNE": "MTARFA", "NOMBRE PLA": 123 }, "geometry": { "type": "Point", "coordinates": [ 4.6243749, 35.717583 ] } },
{ "type": "Feature", "properties": { "REGION": "HAUTS PLATEAUX", "WILAYA": "M SILA", "COMMUNE": "BOUTI SAYEH", "NOMBRE PLA": 28 }, "geometry": { "type": "Point", "coordinates": [ 3.6217802, 35.642735 ] } },
{ "type": "Feature", "properties": { "REGION": "HAUTS PLATEAUX", "WILAYA": "M SILA", "COMMUNE": "MENAA", "NOMBRE PLA": 24 }, "geometry": { "type": "Point", "coordinates": [ 3.8044832, 35.045425 ] } },
{ "type": "Feature", "properties": { "REGION": "HAUTS PLATEAUX", "WILAYA": "M SILA", "COMMUNE": "BIR FODDA", "NOMBRE PLA": 4 }, "geometry": { "type": "Point", "coordinates": [ 3.9266503, 34.821339 ] } },
{ "type": "Feature", "properties": { "REGION": "HAUTS PLATEAUX", "WILAYA": "M SILA", "COMMUNE": "OULED ADDI GUEBALA", "NOMBRE PLA": 153 }, "geometry": { "type": "Point", "coordinates": [ 4.8728094, 35.707802 ] } },
{ "type": "Feature", "properties": { "REGION": "HAUTS PLATEAUX", "WILAYA": "M SILA", "COMMUNE": "SLIM", "NOMBRE PLA": 6 }, "geometry": { "type": "Point", "coordinates": [ 3.8451731, 34.912086 ] } },
{ "type": "Feature", "properties": { "REGION": "HAUTS PLATEAUX", "WILAYA": "M SILA", "COMMUNE": "AIN ERRICH", "NOMBRE PLA": 7 }, "geometry": { "type": "Point", "coordinates": [ 4.0286779, 34.575138 ] } },
{ "type": "Feature", "properties": { "REGION": "HAUTS PLATEAUX", "WILAYA": "M SILA", "COMMUNE": "BEN SROUR", "NOMBRE PLA": 113 }, "geometry": { "type": "Point", "coordinates": [ 4.603723, 34.995823 ] } },
{ "type": "Feature", "properties": { "REGION": "HAUTS PLATEAUX", "WILAYA": "M SILA", "COMMUNE": "OUENOUGHA", "NOMBRE PLA": 90 }, "geometry": { "type": "Point", "coordinates": [ 4.171854, 35.951809 ] } },
{ "type": "Feature", "properties": { "REGION": "HAUTS PLATEAUX", "WILAYA": "M SILA", "COMMUNE": "MAADID", "NOMBRE PLA": 173 }, "geometry": { "type": "Point", "coordinates": [ 4.7484517, 35.799904 ] } },
{ "type": "Feature", "properties": { "REGION": "HAUTS PLATEAUX", "WILAYA": "M SILA", "COMMUNE": "DJEBEL MESSAAD", "NOMBRE PLA": 30 }, "geometry": { "type": "Point", "coordinates": [ 4.1923399, 35.010689 ] } },
{ "type": "Feature", "properties": { "REGION": "HAUTS PLATEAUX", "WILAYA": "M SILA", "COMMUNE": "MSILA", "NOMBRE PLA": 1784 }, "geometry": { "type": "Point", "coordinates": [ 4.5418143, 35.677109 ] } },
{ "type": "Feature", "properties": { "REGION": "HAUTS PLATEAUX", "WILAYA": "M SILA", "COMMUNE": "OULED MANSOUR", "NOMBRE PLA": 78 }, "geometry": { "type": "Point", "coordinates": [ 4.3770704, 35.72681 ] } },
{ "type": "Feature", "properties": { "REGION": "HAUTS PLATEAUX", "WILAYA": "M SILA", "COMMUNE": "SOUMAA", "NOMBRE PLA": 32 }, "geometry": { "type": "Point", "coordinates": [ 4.7239003, 35.586311 ] } },
{ "type": "Feature", "properties": { "REGION": "HAUTS PLATEAUX", "WILAYA": "M SILA", "COMMUNE": "EL HAMEL", "NOMBRE PLA": 70 }, "geometry": { "type": "Point", "coordinates": [ 4.0899911, 35.124081 ] } },
{ "type": "Feature", "properties": { "REGION": "HAUTS PLATEAUX", "WILAYA": "M SILA", "COMMUNE": "OULED SIDI BRAHIM", "NOMBRE PLA": 83 }, "geometry": { "type": "Point", "coordinates": [ 4.1309066, 35.342079 ] } },
{ "type": "Feature", "properties": { "REGION": "HAUTS PLATEAUX", "WILAYA": "M SILA", "COMMUNE": "KHETTOUTI SED EL DJIR", "NOMBRE PLA": 58 }, "geometry": { "type": "Point", "coordinates": [ 4.2538452, 35.687603 ] } },
{ "type": "Feature", "properties": { "REGION": "HAUTS PLATEAUX", "WILAYA": "M SILA", "COMMUNE": "BENZOUH", "NOMBRE PLA": 31 }, "geometry": { "type": "Point", "coordinates": [ 4.0899911, 35.474815 ] } },
{ "type": "Feature", "properties": { "REGION": "HAUTS PLATEAUX", "WILAYA": "M SILA", "COMMUNE": "TARMOUNT", "NOMBRE PLA": 76 }, "geometry": { "type": "Point", "coordinates": [ 4.2538452, 35.818378 ] } },
{ "type": "Feature", "properties": { "REGION": "HAUTS PLATEAUX", "WILAYA": "M SILA", "COMMUNE": "MEDJEDEL", "NOMBRE PLA": 49 }, "geometry": { "type": "Point", "coordinates": [ 3.6420479, 35.050396 ] } },
{ "type": "Feature", "properties": { "REGION": "HAUTS PLATEAUX", "WILAYA": "M SILA", "COMMUNE": "SIDI HADJERES", "NOMBRE PLA": 22 }, "geometry": { "type": "Point", "coordinates": [ 4.0134311, 35.716541 ] } },
{ "type": "Feature", "properties": { "REGION": "HAUTS PLATEAUX", "WILAYA": "M SILA", "COMMUNE": "OULED SLIMANE", "NOMBRE PLA": 4 }, "geometry": { "type": "Point", "coordinates": [ 4.8520637, 34.898174 ] } },
{ "type": "Feature", "properties": { "REGION": "HAUTS PLATEAUX", "WILAYA": "M SILA", "COMMUNE": "MCIF", "NOMBRE PLA": 18 }, "geometry": { "type": "Point", "coordinates": [ 4.7691584, 35.340542 ] } },
{ "type": "Feature", "properties": { "REGION": "HAUTS PLATEAUX", "WILAYA": "M SILA", "COMMUNE": "BOUSAADA", "NOMBRE PLA": 1172 }, "geometry": { "type": "Point", "coordinates": [ 4.1794667, 35.21027 ] } },
{ "type": "Feature", "properties": { "REGION": "HAUTS PLATEAUX", "WILAYA": "M SILA", "COMMUNE": "MAGRA", "NOMBRE PLA": 364 }, "geometry": { "type": "Point", "coordinates": [ 5.1223607, 35.610241 ] } },
{ "type": "Feature", "properties": { "REGION": "HAUTS PLATEAUX", "WILAYA": "M SILA", "COMMUNE": "CHELLAL", "NOMBRE PLA": 40 }, "geometry": { "type": "Point", "coordinates": [ 4.3770704, 35.508507 ] } },
{ "type": "Feature", "properties": { "REGION": "HAUTS PLATEAUX", "WILAYA": "M SILA", "COMMUNE": "SIDI MHAMED", "NOMBRE PLA": 4 }, "geometry": { "type": "Point", "coordinates": [ 4.2948885, 34.764828 ] } },
{ "type": "Feature", "properties": { "REGION": "HAUTS PLATEAUX", "WILAYA": "M SILA", "COMMUNE": "KHOUBANA", "NOMBRE PLA": 95 }, "geometry": { "type": "Point", "coordinates": [ 4.5005808, 35.328915 ] } },
{ "type": "Feature", "properties": { "REGION": "HAUTS PLATEAUX", "WILAYA": "M SILA", "COMMUNE": "DEHAHNA", "NOMBRE PLA": 38 }, "geometry": { "type": "Point", "coordinates": [ 5.0286489, 35.734089 ] } },
{ "type": "Feature", "properties": { "REGION": "HAUTS PLATEAUX", "WILAYA": "M SILA", "COMMUNE": "SIDI AMEUR", "NOMBRE PLA": 68 }, "geometry": { "type": "Point", "coordinates": [ 3.8248241, 35.417831 ] } },
{ "type": "Feature", "properties": { "REGION": "HAUTS PLATEAUX", "WILAYA": "M SILA", "COMMUNE": "MOHAMED BOUDIAF", "NOMBRE PLA": 9 }, "geometry": { "type": "Point", "coordinates": [ 4.4593792, 34.891163 ] } },
{ "type": "Feature", "properties": { "REGION": "HAUTS PLATEAUX", "WILAYA": "M SILA", "COMMUNE": "BERHOUM", "NOMBRE PLA": 200 }, "geometry": { "type": "Point", "coordinates": [ 5.0078449, 35.647766 ] } },
{ "type": "Feature", "properties": { "REGION": "HAUTS PLATEAUX", "WILAYA": "M SILA", "COMMUNE": "OULTENE", "NOMBRE PLA": 28 }, "geometry": { "type": "Point", "coordinates": [ 4.2948885, 35.117012 ] } },
{ "type": "Feature", "properties": { "REGION": "HAUTS PLATEAUX", "WILAYA": "M SILA", "COMMUNE": "AIN FARES", "NOMBRE PLA": 1 }, "geometry": { "type": "Point", "coordinates": [ 4.5005808, 34.713299 ] } },
{ "type": "Feature", "properties": { "REGION": "HAUTS PLATEAUX", "WILAYA": "M SILA", "COMMUNE": "SIDI AISSA", "NOMBRE PLA": 424 }, "geometry": { "type": "Point", "coordinates": [ 3.7029002, 35.814777 ] } },
{ "type": "Feature", "properties": { "REGION": "HAUTS PLATEAUX", "WILAYA": "M SILA", "COMMUNE": "OULED MADHI", "NOMBRE PLA": 47 }, "geometry": { "type": "Point", "coordinates": [ 4.5418143, 35.546135 ] } },
{ "type": "Feature", "properties": { "REGION": "HAUTS PLATEAUX", "WILAYA": "M SILA", "COMMUNE": "HAMMAM DHALAA", "NOMBRE PLA": 677 }, "geometry": { "type": "Point", "coordinates": [ 4.3919768, 35.944538 ] } },
{ "type": "Feature", "properties": { "REGION": "HAUTS PLATEAUX", "WILAYA": "NAAMA", "COMMUNE": "MECHRIA", "NOMBRE PLA": 327 }, "geometry": { "type": "Point", "coordinates": [ -0.27627069, 33.544277 ] } },
{ "type": "Feature", "properties": { "REGION": "HAUTS PLATEAUX", "WILAYA": "NAAMA", "COMMUNE": "MEKMEN BEN AMAR", "NOMBRE PLA": 38 }, "geometry": { "type": "Point", "coordinates": [ -0.72714788, 33.718906 ] } },
{ "type": "Feature", "properties": { "REGION": "HAUTS PLATEAUX", "WILAYA": "NAAMA", "COMMUNE": "EL BIOD", "NOMBRE PLA": 22 }, "geometry": { "type": "Point", "coordinates": [ -0.12844039, 33.760086 ] } },
{ "type": "Feature", "properties": { "REGION": "HAUTS PLATEAUX", "WILAYA": "NAAMA", "COMMUNE": "TIOUT", "NOMBRE PLA": 8 }, "geometry": { "type": "Point", "coordinates": [ -0.42665839, 32.768227 ] } },
{ "type": "Feature", "properties": { "REGION": "HAUTS PLATEAUX", "WILAYA": "NAAMA", "COMMUNE": "KASDIR", "NOMBRE PLA": 30 }, "geometry": { "type": "Point", "coordinates": [ -1.375755, 33.713589 ] } },
{ "type": "Feature", "properties": { "REGION": "HAUTS PLATEAUX", "WILAYA": "NAAMA", "COMMUNE": "NAAMA", "NOMBRE PLA": 93 }, "geometry": { "type": "Point", "coordinates": [ -0.3748354, 33.168327 ] } },
{ "type": "Feature", "properties": { "REGION": "HAUTS PLATEAUX", "WILAYA": "NAAMA", "COMMUNE": "DJENIEN BOUREZG", "NOMBRE PLA": 24 }, "geometry": { "type": "Point", "coordinates": [ -0.94384682, 32.397903 ] } },
{ "type": "Feature", "properties": { "REGION": "HAUTS PLATEAUX", "WILAYA": "NAAMA", "COMMUNE": "MOGHRAR", "NOMBRE PLA": 11 }, "geometry": { "type": "Point", "coordinates": [ -0.57543731, 32.516163 ] } },
{ "type": "Feature", "properties": { "REGION": "HAUTS PLATEAUX", "WILAYA": "NAAMA", "COMMUNE": "AIN BEN KHELIL", "NOMBRE PLA": 3 }, "geometry": { "type": "Point", "coordinates": [ -0.76304901, 33.288551 ] } },
{ "type": "Feature", "properties": { "REGION": "HAUTS PLATEAUX", "WILAYA": "NAAMA", "COMMUNE": "ASLA", "NOMBRE PLA": 7 }, "geometry": { "type": "Point", "coordinates": [ -0.079348803, 33.005699 ] } },
{ "type": "Feature", "properties": { "REGION": "HAUTS PLATEAUX", "WILAYA": "NAAMA", "COMMUNE": "SFISSIFA", "NOMBRE PLA": 24 }, "geometry": { "type": "Point", "coordinates": [ -0.98206681, 32.804615 ] } },
{ "type": "Feature", "properties": { "REGION": "HAUTS PLATEAUX", "WILAYA": "NAAMA", "COMMUNE": "AIN SEFRA", "NOMBRE PLA": 237 }, "geometry": { "type": "Point", "coordinates": [ -0.57780331, 32.756332 ] } },
{ "type": "Feature", "properties": { "REGION": "HAUTS PLATEAUX", "WILAYA": "OUM EL BOUAGHI", "COMMUNE": "EL BELALA", "NOMBRE PLA": 19 }, "geometry": { "type": "Point", "coordinates": [ 7.7885375, 35.665348 ] } },
{ "type": "Feature", "properties": { "REGION": "HAUTS PLATEAUX", "WILAYA": "OUM EL BOUAGHI", "COMMUNE": "AIN FAKROUN", "NOMBRE PLA": 162 }, "geometry": { "type": "Point", "coordinates": [ 6.8708487, 35.97369 ] } },
{ "type": "Feature", "properties": { "REGION": "HAUTS PLATEAUX", "WILAYA": "OUM EL BOUAGHI", "COMMUNE": "OUM EL BOUAGHI", "NOMBRE PLA": 742 }, "geometry": { "type": "Point", "coordinates": [ 7.1197867, 35.873055 ] } },
{ "type": "Feature", "properties": { "REGION": "HAUTS PLATEAUX", "WILAYA": "OUM EL BOUAGHI", "COMMUNE": "BIR CHOUHADA", "NOMBRE PLA": 47 }, "geometry": { "type": "Point", "coordinates": [ 6.2925057, 35.896626 ] } },
{ "type": "Feature", "properties": { "REGION": "HAUTS PLATEAUX", "WILAYA": "OUM EL BOUAGHI", "COMMUNE": "EL AMIRIA", "NOMBRE PLA": 33 }, "geometry": { "type": "Point", "coordinates": [ 6.9048319, 36.110176 ] } },
{ "type": "Feature", "properties": { "REGION": "HAUTS PLATEAUX", "WILAYA": "OUM EL BOUAGHI", "COMMUNE": "DHALAA", "NOMBRE PLA": 32 }, "geometry": { "type": "Point", "coordinates": [ 7.5490971, 35.458256 ] } },
{ "type": "Feature", "properties": { "REGION": "HAUTS PLATEAUX", "WILAYA": "OUM EL BOUAGHI", "COMMUNE": "EL FEDJOUDJ BOUGHRARA SAOUDI", "NOMBRE PLA": 10 }, "geometry": { "type": "Point", "coordinates": [ 6.821032, 35.709167 ] } },
{ "type": "Feature", "properties": { "REGION": "HAUTS PLATEAUX", "WILAYA": "OUM EL BOUAGHI", "COMMUNE": "OULED ZOUAI", "NOMBRE PLA": 19 }, "geometry": { "type": "Point", "coordinates": [ 6.5143089, 35.847733 ] } },
{ "type": "Feature", "properties": { "REGION": "HAUTS PLATEAUX", "WILAYA": "OUM EL BOUAGHI", "COMMUNE": "REHIA", "NOMBRE PLA": 31 }, "geometry": { "type": "Point", "coordinates": [ 7.6453171, 35.763443 ] } },
{ "type": "Feature", "properties": { "REGION": "HAUTS PLATEAUX", "WILAYA": "OUM EL BOUAGHI", "COMMUNE": "AIN ZITOUN", "NOMBRE PLA": 35 }, "geometry": { "type": "Point", "coordinates": [ 6.9356742, 35.684265 ] } },
{ "type": "Feature", "properties": { "REGION": "HAUTS PLATEAUX", "WILAYA": "OUM EL BOUAGHI", "COMMUNE": "SIGUS", "NOMBRE PLA": 150 }, "geometry": { "type": "Point", "coordinates": [ 6.7708139, 36.093685 ] } },
{ "type": "Feature", "properties": { "REGION": "HAUTS PLATEAUX", "WILAYA": "OUM EL BOUAGHI", "COMMUNE": "MESKIANA", "NOMBRE PLA": 126 }, "geometry": { "type": "Point", "coordinates": [ 7.6710887, 35.632828 ] } },
{ "type": "Feature", "properties": { "REGION": "HAUTS PLATEAUX", "WILAYA": "OUM EL BOUAGHI", "COMMUNE": "AIN MLILA", "NOMBRE PLA": 1110 }, "geometry": { "type": "Point", "coordinates": [ 6.5569882, 36.018951 ] } },
{ "type": "Feature", "properties": { "REGION": "HAUTS PLATEAUX", "WILAYA": "OUM EL BOUAGHI", "COMMUNE": "AIN BABOUCHE", "NOMBRE PLA": 107 }, "geometry": { "type": "Point", "coordinates": [ 7.1817198, 35.942539 ] } },
{ "type": "Feature", "properties": { "REGION": "HAUTS PLATEAUX", "WILAYA": "OUM EL BOUAGHI", "COMMUNE": "EL DJEZIA", "NOMBRE PLA": 17 }, "geometry": { "type": "Point", "coordinates": [ 7.5071273, 35.663551 ] } },
{ "type": "Feature", "properties": { "REGION": "HAUTS PLATEAUX", "WILAYA": "OUM EL BOUAGHI", "COMMUNE": "BEHIR CHERGUI", "NOMBRE PLA": 6 }, "geometry": { "type": "Point", "coordinates": [ 7.7185879, 35.794018 ] } },
{ "type": "Feature", "properties": { "REGION": "HAUTS PLATEAUX", "WILAYA": "OUM EL BOUAGHI", "COMMUNE": "SOUK NAAMANE", "NOMBRE PLA": 232 }, "geometry": { "type": "Point", "coordinates": [ 6.3864427, 35.941422 ] } },
{ "type": "Feature", "properties": { "REGION": "HAUTS PLATEAUX", "WILAYA": "OUM EL BOUAGHI", "COMMUNE": "KSAR SBAHI", "NOMBRE PLA": 75 }, "geometry": { "type": "Point", "coordinates": [ 7.2571945, 36.084129 ] } },
{ "type": "Feature", "properties": { "REGION": "HAUTS PLATEAUX", "WILAYA": "OUM EL BOUAGHI", "COMMUNE": "OUED NINI", "NOMBRE PLA": 11 }, "geometry": { "type": "Point", "coordinates": [ 7.3476048, 35.570076 ] } },
{ "type": "Feature", "properties": { "REGION": "HAUTS PLATEAUX", "WILAYA": "OUM EL BOUAGHI", "COMMUNE": "FKIRINA", "NOMBRE PLA": 87 }, "geometry": { "type": "Point", "coordinates": [ 7.3003602, 35.664051 ] } },
{ "type": "Feature", "properties": { "REGION": "HAUTS PLATEAUX", "WILAYA": "OUM EL BOUAGHI", "COMMUNE": "AIN KERCHA", "NOMBRE PLA": 254 }, "geometry": { "type": "Point", "coordinates": [ 6.690546, 35.930283 ] } },
{ "type": "Feature", "properties": { "REGION": "HAUTS PLATEAUX", "WILAYA": "OUM EL BOUAGHI", "COMMUNE": "EL HARMILIA", "NOMBRE PLA": 131 }, "geometry": { "type": "Point", "coordinates": [ 6.6223965, 35.924572 ] } },
{ "type": "Feature", "properties": { "REGION": "HAUTS PLATEAUX", "WILAYA": "OUM EL BOUAGHI", "COMMUNE": "HANCHIR TOUMGHANI", "NOMBRE PLA": 63 }, "geometry": { "type": "Point", "coordinates": [ 6.7413707, 35.935574 ] } },
{ "type": "Feature", "properties": { "REGION": "HAUTS PLATEAUX", "WILAYA": "OUM EL BOUAGHI", "COMMUNE": "OULED GACEM", "NOMBRE PLA": 93 }, "geometry": { "type": "Point", "coordinates": [ 6.6362071, 36.062653 ] } },
{ "type": "Feature", "properties": { "REGION": "HAUTS PLATEAUX", "WILAYA": "OUM EL BOUAGHI", "COMMUNE": "BERRICHE", "NOMBRE PLA": 93 }, "geometry": { "type": "Point", "coordinates": [ 7.375967, 35.914497 ] } },
{ "type": "Feature", "properties": { "REGION": "HAUTS PLATEAUX", "WILAYA": "OUM EL BOUAGHI", "COMMUNE": "AIN DISS", "NOMBRE PLA": 12 }, "geometry": { "type": "Point", "coordinates": [ 7.3679228, 36.261902 ] } },
{ "type": "Feature", "properties": { "REGION": "HAUTS PLATEAUX", "WILAYA": "OUM EL BOUAGHI", "COMMUNE": "AIN BEIDA", "NOMBRE PLA": 666 }, "geometry": { "type": "Point", "coordinates": [ 7.3921733, 35.798134 ] } },
{ "type": "Feature", "properties": { "REGION": "HAUTS PLATEAUX", "WILAYA": "OUM EL BOUAGHI", "COMMUNE": "EL ZORG", "NOMBRE PLA": 14 }, "geometry": { "type": "Point", "coordinates": [ 7.9074001, 35.720901 ] } },
{ "type": "Feature", "properties": { "REGION": "HAUTS PLATEAUX", "WILAYA": "OUM EL BOUAGHI", "COMMUNE": "OULED HAMLA", "NOMBRE PLA": 226 }, "geometry": { "type": "Point", "coordinates": [ 6.4716582, 36.066914 ] } },
{ "type": "Feature", "properties": { "REGION": "HAUTS PLATEAUX", "WILAYA": "SAIDA", "COMMUNE": "AIN SOLTANE", "NOMBRE PLA": 44 }, "geometry": { "type": "Point", "coordinates": [ 0.30344999, 34.967808 ] } },
{ "type": "Feature", "properties": { "REGION": "HAUTS PLATEAUX", "WILAYA": "SAIDA", "COMMUNE": "AIN EL HADJAR", "NOMBRE PLA": 143 }, "geometry": { "type": "Point", "coordinates": [ 0.15418001, 34.757408 ] } },
{ "type": "Feature", "properties": { "REGION": "HAUTS PLATEAUX", "WILAYA": "SAIDA", "COMMUNE": "SIDI AHMED", "NOMBRE PLA": 35 }, "geometry": { "type": "Point", "coordinates": [ 0.259657, 34.549793 ] } },
{ "type": "Feature", "properties": { "REGION": "HAUTS PLATEAUX", "WILAYA": "SAIDA", "COMMUNE": "EL HASSASNA", "NOMBRE PLA": 82 }, "geometry": { "type": "Point", "coordinates": [ 0.33013421, 34.826096 ] } },
{ "type": "Feature", "properties": { "REGION": "HAUTS PLATEAUX", "WILAYA": "SAIDA", "COMMUNE": "MOULAY LARBI", "NOMBRE PLA": 21 }, "geometry": { "type": "Point", "coordinates": [ 0.0116586, 34.6497 ] } },
{ "type": "Feature", "properties": { "REGION": "HAUTS PLATEAUX", "WILAYA": "SAIDA", "COMMUNE": "MAAMORA", "NOMBRE PLA": 17 }, "geometry": { "type": "Point", "coordinates": [ 0.49979731, 34.681866 ] } },
{ "type": "Feature", "properties": { "REGION": "HAUTS PLATEAUX", "WILAYA": "SAIDA", "COMMUNE": "YOUB", "NOMBRE PLA": 55 }, "geometry": { "type": "Point", "coordinates": [ -0.20805471, 34.920162 ] } },
{ "type": "Feature", "properties": { "REGION": "HAUTS PLATEAUX", "WILAYA": "SAIDA", "COMMUNE": "AIN SKHOUNA", "NOMBRE PLA": 5 }, "geometry": { "type": "Point", "coordinates": [ 0.8441667, 34.504444 ] } },
{ "type": "Feature", "properties": { "REGION": "HAUTS PLATEAUX", "WILAYA": "SAIDA", "COMMUNE": "SIDI BOUBEKEUR", "NOMBRE PLA": 64 }, "geometry": { "type": "Point", "coordinates": [ 0.053659201, 35.030544 ] } },
{ "type": "Feature", "properties": { "REGION": "HAUTS PLATEAUX", "WILAYA": "SAIDA", "COMMUNE": "OULED BRAHIM", "NOMBRE PLA": 35 }, "geometry": { "type": "Point", "coordinates": [ 0.9174, 34.860001 ] } },
{ "type": "Feature", "properties": { "REGION": "HAUTS PLATEAUX", "WILAYA": "SAIDA", "COMMUNE": "TIRCINE", "NOMBRE PLA": 14 }, "geometry": { "type": "Point", "coordinates": [ 0.55296659, 34.901161 ] } },
{ "type": "Feature", "properties": { "REGION": "HAUTS PLATEAUX", "WILAYA": "SAIDA", "COMMUNE": "DOUI THABET", "NOMBRE PLA": 9 }, "geometry": { "type": "Point", "coordinates": [ -0.073508799, 34.894119 ] } },
{ "type": "Feature", "properties": { "REGION": "HAUTS PLATEAUX", "WILAYA": "SAIDA", "COMMUNE": "SAIDA", "NOMBRE PLA": 507 }, "geometry": { "type": "Point", "coordinates": [ 0.1484305, 34.841202 ] } },
{ "type": "Feature", "properties": { "REGION": "HAUTS PLATEAUX", "WILAYA": "SAIDA", "COMMUNE": "SIDI AMAR", "NOMBRE PLA": 24 }, "geometry": { "type": "Point", "coordinates": [ 0.1097315, 35.024998 ] } },
{ "type": "Feature", "properties": { "REGION": "HAUTS PLATEAUX", "WILAYA": "SAIDA", "COMMUNE": "HOUNET", "NOMBRE PLA": 3 }, "geometry": { "type": "Point", "coordinates": [ -0.1148012, 35.090374 ] } },
{ "type": "Feature", "properties": { "REGION": "HAUTS PLATEAUX", "WILAYA": "SAIDA", "COMMUNE": "OULED KHALED", "NOMBRE PLA": 105 }, "geometry": { "type": "Point", "coordinates": [ 0.27722219, 35.213055 ] } },
{ "type": "Feature", "properties": { "REGION": "HAUTS PLATEAUX", "WILAYA": "SETIF", "COMMUNE": "BENI AZIZ", "NOMBRE PLA": 107 }, "geometry": { "type": "Point", "coordinates": [ 5.656312, 36.464832 ] } },
{ "type": "Feature", "properties": { "REGION": "HAUTS PLATEAUX", "WILAYA": "SETIF", "COMMUNE": "BENI FOUDA", "NOMBRE PLA": 64 }, "geometry": { "type": "Point", "coordinates": [ 5.5827336, 36.284744 ] } },
{ "type": "Feature", "properties": { "REGION": "HAUTS PLATEAUX", "WILAYA": "SETIF", "COMMUNE": "OULED SABOR", "NOMBRE PLA": 139 }, "geometry": { "type": "Point", "coordinates": [ 5.54073, 36.156864 ] } },
{ "type": "Feature", "properties": { "REGION": "HAUTS PLATEAUX", "WILAYA": "SETIF", "COMMUNE": "BOUTALEB", "NOMBRE PLA": 23 }, "geometry": { "type": "Point", "coordinates": [ 5.2475519, 35.692078 ] } },
{ "type": "Feature", "properties": { "REGION": "HAUTS PLATEAUX", "WILAYA": "SETIF", "COMMUNE": "BAZER SAKRA", "NOMBRE PLA": 265 }, "geometry": { "type": "Point", "coordinates": [ 5.6668305, 36.064301 ] } },
{ "type": "Feature", "properties": { "REGION": "HAUTS PLATEAUX", "WILAYA": "SETIF", "COMMUNE": "SETIF", "NOMBRE PLA": 3671 }, "geometry": { "type": "Point", "coordinates": [ 5.4150872, 36.196903 ] } },
{ "type": "Feature", "properties": { "REGION": "HAUTS PLATEAUX", "WILAYA": "SETIF", "COMMUNE": "AMOUCHA", "NOMBRE PLA": 161 }, "geometry": { "type": "Point", "coordinates": [ 5.4149003, 36.378891 ] } },
{ "type": "Feature", "properties": { "REGION": "HAUTS PLATEAUX", "WILAYA": "SETIF", "COMMUNE": "EL OURICIA", "NOMBRE PLA": 130 }, "geometry": { "type": "Point", "coordinates": [ 5.4149003, 36.292454 ] } },
{ "type": "Feature", "properties": { "REGION": "HAUTS PLATEAUX", "WILAYA": "SETIF", "COMMUNE": "GUELTA ZERGA", "NOMBRE PLA": 89 }, "geometry": { "type": "Point", "coordinates": [ 5.677351, 36.20459 ] } },
{ "type": "Feature", "properties": { "REGION": "HAUTS PLATEAUX", "WILAYA": "SETIF", "COMMUNE": "AIN EL KEBIRA", "NOMBRE PLA": 262 }, "geometry": { "type": "Point", "coordinates": [ 5.5092468, 36.363785 ] } },
{ "type": "Feature", "properties": { "REGION": "HAUTS PLATEAUX", "WILAYA": "SETIF", "COMMUNE": "GUENZET TASSAMEURT", "NOMBRE PLA": 10 }, "geometry": { "type": "Point", "coordinates": [ 4.8209596, 36.328648 ] } },
{ "type": "Feature", "properties": { "REGION": "HAUTS PLATEAUX", "WILAYA": "SETIF", "COMMUNE": "SERDJ EL GHOUL", "NOMBRE PLA": 19 }, "geometry": { "type": "Point", "coordinates": [ 5.5932388, 36.4678 ] } },
{ "type": "Feature", "properties": { "REGION": "HAUTS PLATEAUX", "WILAYA": "SETIF", "COMMUNE": "DRAA KEBILA", "NOMBRE PLA": 30 }, "geometry": { "type": "Point", "coordinates": [ 4.9973941, 36.437946 ] } },
{ "type": "Feature", "properties": { "REGION": "HAUTS PLATEAUX", "WILAYA": "SETIF", "COMMUNE": "HAMMAM SKHOUNA", "NOMBRE PLA": 117 }, "geometry": { "type": "Point", "coordinates": [ 5.8353839, 35.969463 ] } },
{ "type": "Feature", "properties": { "REGION": "HAUTS PLATEAUX", "WILAYA": "SETIF", "COMMUNE": "OULED ADDOUANE", "NOMBRE PLA": 79 }, "geometry": { "type": "Point", "coordinates": [ 5.4672961, 36.344105 ] } },
{ "type": "Feature", "properties": { "REGION": "HAUTS PLATEAUX", "WILAYA": "SETIF", "COMMUNE": "BENI CHEBANA", "NOMBRE PLA": 37 }, "geometry": { "type": "Point", "coordinates": [ 4.9039426, 36.476494 ] } },
{ "type": "Feature", "properties": { "REGION": "HAUTS PLATEAUX", "WILAYA": "SETIF", "COMMUNE": "BEIDHA BORDJ", "NOMBRE PLA": 85 }, "geometry": { "type": "Point", "coordinates": [ 5.6663132, 35.894142 ] } },
{ "type": "Feature", "properties": { "REGION": "HAUTS PLATEAUX", "WILAYA": "SETIF", "COMMUNE": "MAOUKLANE", "NOMBRE PLA": 89 }, "geometry": { "type": "Point", "coordinates": [ 5.0769286, 36.396648 ] } },
{ "type": "Feature", "properties": { "REGION": "HAUTS PLATEAUX", "WILAYA": "SETIF", "COMMUNE": "GUIDJEL", "NOMBRE PLA": 292 }, "geometry": { "type": "Point", "coordinates": [ 5.4987564, 36.072117 ] } },
{ "type": "Feature", "properties": { "REGION": "HAUTS PLATEAUX", "WILAYA": "SETIF", "COMMUNE": "BELLAA", "NOMBRE PLA": 106 }, "geometry": { "type": "Point", "coordinates": [ 5.8775964, 36.227386 ] } },
{ "type": "Feature", "properties": { "REGION": "HAUTS PLATEAUX", "WILAYA": "SETIF", "COMMUNE": "TIZI NBECHAR", "NOMBRE PLA": 73 }, "geometry": { "type": "Point", "coordinates": [ 5.3625517, 36.435223 ] } },
{ "type": "Feature", "properties": { "REGION": "HAUTS PLATEAUX", "WILAYA": "SETIF", "COMMUNE": "AIN LAGRADJ", "NOMBRE PLA": 37 }, "geometry": { "type": "Point", "coordinates": [ 4.8910241, 36.409668 ] } },
{ "type": "Feature", "properties": { "REGION": "HAUTS PLATEAUX", "WILAYA": "SETIF", "COMMUNE": "TACHOUDA", "NOMBRE PLA": 53 }, "geometry": { "type": "Point", "coordinates": [ 5.7405138, 36.266472 ] } },
{ "type": "Feature", "properties": { "REGION": "HAUTS PLATEAUX", "WILAYA": "SETIF", "COMMUNE": "BIR EL ARCH", "NOMBRE PLA": 167 }, "geometry": { "type": "Point", "coordinates": [ 5.793201, 36.101612 ] } },
{ "type": "Feature", "properties": { "REGION": "HAUTS PLATEAUX", "WILAYA": "SETIF", "COMMUNE": "AIN ARNAT", "NOMBRE PLA": 552 }, "geometry": { "type": "Point", "coordinates": [ 5.3163223, 36.190071 ] } },
{ "type": "Feature", "properties": { "REGION": "HAUTS PLATEAUX", "WILAYA": "SETIF", "COMMUNE": "HAMMAM GUERGOUR", "NOMBRE PLA": 114 }, "geometry": { "type": "Point", "coordinates": [ 5.0548544, 36.322266 ] } },
{ "type": "Feature", "properties": { "REGION": "HAUTS PLATEAUX", "WILAYA": "SETIF", "COMMUNE": "SALAH BEY", "NOMBRE PLA": 231 }, "geometry": { "type": "Point", "coordinates": [ 5.3730178, 35.817188 ] } },
{ "type": "Feature", "properties": { "REGION": "HAUTS PLATEAUX", "WILAYA": "SETIF", "COMMUNE": "AIN SEBT", "NOMBRE PLA": 150 }, "geometry": { "type": "Point", "coordinates": [ 5.7194524, 36.483391 ] } },
{ "type": "Feature", "properties": { "REGION": "HAUTS PLATEAUX", "WILAYA": "SETIF", "COMMUNE": "OULED SIDI AHMED", "NOMBRE PLA": 74 }, "geometry": { "type": "Point", "coordinates": [ 5.6304998, 35.772099 ] } },
{ "type": "Feature", "properties": { "REGION": "HAUTS PLATEAUX", "WILAYA": "SETIF", "COMMUNE": "BABOR", "NOMBRE PLA": 33 }, "geometry": { "type": "Point", "coordinates": [ 5.4987564, 36.461403 ] } },
{ "type": "Feature", "properties": { "REGION": "HAUTS PLATEAUX", "WILAYA": "SETIF", "COMMUNE": "BOUANDAS", "NOMBRE PLA": 125 }, "geometry": { "type": "Point", "coordinates": [ 5.1119409, 36.510929 ] } },
{ "type": "Feature", "properties": { "REGION": "HAUTS PLATEAUX", "WILAYA": "SETIF", "COMMUNE": "HARBIL", "NOMBRE PLA": 9 }, "geometry": { "type": "Point", "coordinates": [ 4.9247074, 36.346046 ] } },
{ "type": "Feature", "properties": { "REGION": "HAUTS PLATEAUX", "WILAYA": "SETIF", "COMMUNE": "BOUSSELAM", "NOMBRE PLA": 89 }, "geometry": { "type": "Point", "coordinates": [ 5.0078449, 36.493767 ] } },
{ "type": "Feature", "properties": { "REGION": "HAUTS PLATEAUX", "WILAYA": "SETIF", "COMMUNE": "BENI MOUHLI", "NOMBRE PLA": 23 }, "geometry": { "type": "Point", "coordinates": [ 4.9096065, 36.516697 ] } },
{ "type": "Feature", "properties": { "REGION": "HAUTS PLATEAUX", "WILAYA": "SETIF", "COMMUNE": "BENI HOCINE", "NOMBRE PLA": 131 }, "geometry": { "type": "Point", "coordinates": [ 5.1119409, 36.251686 ] } },
{ "type": "Feature", "properties": { "REGION": "HAUTS PLATEAUX", "WILAYA": "SETIF", "COMMUNE": "EL OUELDJA", "NOMBRE PLA": 16 }, "geometry": { "type": "Point", "coordinates": [ 5.9198389, 36.052086 ] } },
{ "type": "Feature", "properties": { "REGION": "HAUTS PLATEAUX", "WILAYA": "SETIF", "COMMUNE": "MEZLOUG", "NOMBRE PLA": 168 }, "geometry": { "type": "Point", "coordinates": [ 5.2475519, 36.083363 ] } },
{ "type": "Feature", "properties": { "REGION": "HAUTS PLATEAUX", "WILAYA": "SETIF", "COMMUNE": "MAAOUIA", "NOMBRE PLA": 18 }, "geometry": { "type": "Point", "coordinates": [ 5.6983981, 36.398106 ] } },
{ "type": "Feature", "properties": { "REGION": "HAUTS PLATEAUX", "WILAYA": "SETIF", "COMMUNE": "AIN LAHDJAR", "NOMBRE PLA": 167 }, "geometry": { "type": "Point", "coordinates": [ 5.5419497, 35.937279 ] } },
{ "type": "Feature", "properties": { "REGION": "HAUTS PLATEAUX", "WILAYA": "SETIF", "COMMUNE": "OULED TEBBEN", "NOMBRE PLA": 87 }, "geometry": { "type": "Point", "coordinates": [ 5.1223607, 35.784584 ] } },
{ "type": "Feature", "properties": { "REGION": "HAUTS PLATEAUX", "WILAYA": "SETIF", "COMMUNE": "BENI OUARTILANE", "NOMBRE PLA": 23 }, "geometry": { "type": "Point", "coordinates": [ 4.8525281, 36.442207 ] } },
{ "type": "Feature", "properties": { "REGION": "HAUTS PLATEAUX", "WILAYA": "SETIF", "COMMUNE": "BIR HADDADA", "NOMBRE PLA": 105 }, "geometry": { "type": "Point", "coordinates": [ 5.4150872, 36.196903 ] } },
{ "type": "Feature", "properties": { "REGION": "HAUTS PLATEAUX", "WILAYA": "SETIF", "COMMUNE": "HAMMA", "NOMBRE PLA": 27 }, "geometry": { "type": "Point", "coordinates": [ 5.3730178, 35.68655 ] } },
{ "type": "Feature", "properties": { "REGION": "HAUTS PLATEAUX", "WILAYA": "SETIF", "COMMUNE": "GUELLAL", "NOMBRE PLA": 133 }, "geometry": { "type": "Point", "coordinates": [ 5.3311653, 36.036301 ] } },
{ "type": "Feature", "properties": { "REGION": "HAUTS PLATEAUX", "WILAYA": "SETIF", "COMMUNE": "TAYA", "NOMBRE PLA": 21 }, "geometry": { "type": "Point", "coordinates": [ 5.9665303, 35.959335 ] } },
{ "type": "Feature", "properties": { "REGION": "HAUTS PLATEAUX", "WILAYA": "SETIF", "COMMUNE": "AIN OULMANE", "NOMBRE PLA": 672 }, "geometry": { "type": "Point", "coordinates": [ 5.2976289, 35.914749 ] } },
{ "type": "Feature", "properties": { "REGION": "HAUTS PLATEAUX", "WILAYA": "SETIF", "COMMUNE": "DEHAMCHA", "NOMBRE PLA": 59 }, "geometry": { "type": "Point", "coordinates": [ 5.6247668, 36.369205 ] } },
{ "type": "Feature", "properties": { "REGION": "HAUTS PLATEAUX", "WILAYA": "SETIF", "COMMUNE": "TALA IFACENE", "NOMBRE PLA": 93 }, "geometry": { "type": "Point", "coordinates": [ 5.7089243, 35.97554 ] } },
{ "type": "Feature", "properties": { "REGION": "HAUTS PLATEAUX", "WILAYA": "SETIF", "COMMUNE": "ROSFA", "NOMBRE PLA": 67 }, "geometry": { "type": "Point", "coordinates": [ 5.2475519, 35.779198 ] } },
{ "type": "Feature", "properties": { "REGION": "HAUTS PLATEAUX", "WILAYA": "SETIF", "COMMUNE": "BOUGAA", "NOMBRE PLA": 256 }, "geometry": { "type": "Point", "coordinates": [ 5.1119409, 36.3382 ] } },
{ "type": "Feature", "properties": { "REGION": "HAUTS PLATEAUX", "WILAYA": "SETIF", "COMMUNE": "KSAR EL ABTAL", "NOMBRE PLA": 200 }, "geometry": { "type": "Point", "coordinates": [ 5.2162285, 35.987087 ] } },
{ "type": "Feature", "properties": { "REGION": "HAUTS PLATEAUX", "WILAYA": "SETIF", "COMMUNE": "MZADA", "NOMBRE PLA": 20 }, "geometry": { "type": "Point", "coordinates": [ 5.0747051, 36.541111 ] } },
{ "type": "Feature", "properties": { "REGION": "HAUTS PLATEAUX", "WILAYA": "SETIF", "COMMUNE": "DJEMILA", "NOMBRE PLA": 94 }, "geometry": { "type": "Point", "coordinates": [ 5.1327829, 36.553154 ] } },
{ "type": "Feature", "properties": { "REGION": "HAUTS PLATEAUX", "WILAYA": "SETIF", "COMMUNE": "AIT TIZI", "NOMBRE PLA": 54 }, "geometry": { "type": "Point", "coordinates": [ 5.1327829, 36.553154 ] } },
{ "type": "Feature", "properties": { "REGION": "HAUTS PLATEAUX", "WILAYA": "SETIF", "COMMUNE": "AIN ABESSA", "NOMBRE PLA": 178 }, "geometry": { "type": "Point", "coordinates": [ 5.2893434, 36.298065 ] } },
{ "type": "Feature", "properties": { "REGION": "HAUTS PLATEAUX", "WILAYA": "SETIF", "COMMUNE": "AIN AZAL", "NOMBRE PLA": 406 }, "geometry": { "type": "Point", "coordinates": [ 5.5133953, 35.818474 ] } },
{ "type": "Feature", "properties": { "REGION": "HAUTS PLATEAUX", "WILAYA": "SETIF", "COMMUNE": "OUED EL BARED", "NOMBRE PLA": 21 }, "geometry": { "type": "Point", "coordinates": [ 5.4253759, 36.497108 ] } },
{ "type": "Feature", "properties": { "REGION": "HAUTS PLATEAUX", "WILAYA": "SETIF", "COMMUNE": "AIN ROUA", "NOMBRE PLA": 132 }, "geometry": { "type": "Point", "coordinates": [ 5.1953554, 36.312988 ] } },
{ "type": "Feature", "properties": { "REGION": "HAUTS PLATEAUX", "WILAYA": "SETIF", "COMMUNE": "TELLA", "NOMBRE PLA": 45 }, "geometry": { "type": "Point", "coordinates": [ 5.7089243, 35.97554 ] } },
{ "type": "Feature", "properties": { "REGION": "HAUTS PLATEAUX", "WILAYA": "SETIF", "COMMUNE": "EL EULMA", "NOMBRE PLA": 1694 }, "geometry": { "type": "Point", "coordinates": [ 5.6983981, 36.160301 ] } },
{ "type": "Feature", "properties": { "REGION": "HAUTS PLATEAUX", "WILAYA": "SOUK AHRAS", "COMMUNE": "QUILLEN", "NOMBRE PLA": 63 }, "geometry": { "type": "Point", "coordinates": [ 8.0652924, 36.22781 ] } },
{ "type": "Feature", "properties": { "REGION": "HAUTS PLATEAUX", "WILAYA": "SOUK AHRAS", "COMMUNE": "OUED KEBERIT", "NOMBRE PLA": 15 }, "geometry": { "type": "Point", "coordinates": [ 7.9170713, 35.92466 ] } },
{ "type": "Feature", "properties": { "REGION": "HAUTS PLATEAUX", "WILAYA": "SOUK AHRAS", "COMMUNE": "MERAHNA", "NOMBRE PLA": 46 }, "geometry": { "type": "Point", "coordinates": [ 8.1502438, 36.196682 ] } },
{ "type": "Feature", "properties": { "REGION": "HAUTS PLATEAUX", "WILAYA": "SOUK AHRAS", "COMMUNE": "TAOURA", "NOMBRE PLA": 70 }, "geometry": { "type": "Point", "coordinates": [ 8.0437908, 36.163448 ] } },
{ "type": "Feature", "properties": { "REGION": "HAUTS PLATEAUX", "WILAYA": "SOUK AHRAS", "COMMUNE": "OULED MOUMEN", "NOMBRE PLA": 27 }, "geometry": { "type": "Point", "coordinates": [ 8.3307467, 36.383446 ] } },
{ "type": "Feature", "properties": { "REGION": "HAUTS PLATEAUX", "WILAYA": "SOUK AHRAS", "COMMUNE": "AIN ZANA", "NOMBRE PLA": 11 }, "geometry": { "type": "Point", "coordinates": [ 8.1912279, 36.401188 ] } },
{ "type": "Feature", "properties": { "REGION": "HAUTS PLATEAUX", "WILAYA": "SOUK AHRAS", "COMMUNE": "KHEDARA", "NOMBRE PLA": 29 }, "geometry": { "type": "Point", "coordinates": [ 8.3225327, 36.284473 ] } },
{ "type": "Feature", "properties": { "REGION": "HAUTS PLATEAUX", "WILAYA": "SOUK AHRAS", "COMMUNE": "SIDI FREDJ", "NOMBRE PLA": 58 }, "geometry": { "type": "Point", "coordinates": [ 8.1952753, 36.153713 ] } },
{ "type": "Feature", "properties": { "REGION": "HAUTS PLATEAUX", "WILAYA": "SOUK AHRAS", "COMMUNE": "SAFEL EL OUIDEN", "NOMBRE PLA": 6 }, "geometry": { "type": "Point", "coordinates": [ 7.4915643, 35.929676 ] } },
{ "type": "Feature", "properties": { "REGION": "HAUTS PLATEAUX", "WILAYA": "SOUK AHRAS", "COMMUNE": "ZOUABI", "NOMBRE PLA": 29 }, "geometry": { "type": "Point", "coordinates": [ 8.1378126, 35.959682 ] } },
{ "type": "Feature", "properties": { "REGION": "HAUTS PLATEAUX", "WILAYA": "SOUK AHRAS", "COMMUNE": "SOUK-AHRAS", "NOMBRE PLA": 568 }, "geometry": { "type": "Point", "coordinates": [ 7.94839, 36.269588 ] } },
{ "type": "Feature", "properties": { "REGION": "HAUTS PLATEAUX", "WILAYA": "SOUK AHRAS", "COMMUNE": "MDAOUROUCHE", "NOMBRE PLA": 258 }, "geometry": { "type": "Point", "coordinates": [ 7.8204789, 36.075676 ] } },
{ "type": "Feature", "properties": { "REGION": "HAUTS PLATEAUX", "WILAYA": "SOUK AHRAS", "COMMUNE": "SEDRATA", "NOMBRE PLA": 248 }, "geometry": { "type": "Point", "coordinates": [ 7.5325661, 36.130856 ] } },
{ "type": "Feature", "properties": { "REGION": "HAUTS PLATEAUX", "WILAYA": "SOUK AHRAS", "COMMUNE": "MECHROHA", "NOMBRE PLA": 116 }, "geometry": { "type": "Point", "coordinates": [ 7.8354354, 36.356503 ] } },
{ "type": "Feature", "properties": { "REGION": "HAUTS PLATEAUX", "WILAYA": "SOUK AHRAS", "COMMUNE": "AIN SOLTANE", "NOMBRE PLA": 16 }, "geometry": { "type": "Point", "coordinates": [ 7.3692131, 36.1786 ] } },
{ "type": "Feature", "properties": { "REGION": "HAUTS PLATEAUX", "WILAYA": "SOUK AHRAS", "COMMUNE": "KHEMISSA", "NOMBRE PLA": 20 }, "geometry": { "type": "Point", "coordinates": [ 7.6520982, 36.194569 ] } },
{ "type": "Feature", "properties": { "REGION": "HAUTS PLATEAUX", "WILAYA": "SOUK AHRAS", "COMMUNE": "ZAAROURIA", "NOMBRE PLA": 25 }, "geometry": { "type": "Point", "coordinates": [ 7.956562, 36.228619 ] } },
{ "type": "Feature", "properties": { "REGION": "HAUTS PLATEAUX", "WILAYA": "SOUK AHRAS", "COMMUNE": "RAGGOUBA", "NOMBRE PLA": 44 }, "geometry": { "type": "Point", "coordinates": [ 8.0594444, 36.233612 ] } },
{ "type": "Feature", "properties": { "REGION": "HAUTS PLATEAUX", "WILAYA": "SOUK AHRAS", "COMMUNE": "HANANCHA", "NOMBRE PLA": 37 }, "geometry": { "type": "Point", "coordinates": [ 7.787858, 36.261303 ] } },
{ "type": "Feature", "properties": { "REGION": "HAUTS PLATEAUX", "WILAYA": "SOUK AHRAS", "COMMUNE": "OUM EL ADHAIM", "NOMBRE PLA": 26 }, "geometry": { "type": "Point", "coordinates": [ 7.6032891, 36.030209 ] } },
{ "type": "Feature", "properties": { "REGION": "HAUTS PLATEAUX", "WILAYA": "SOUK AHRAS", "COMMUNE": "HADDADA", "NOMBRE PLA": 37 }, "geometry": { "type": "Point", "coordinates": [ 8.3334846, 36.229847 ] } },
{ "type": "Feature", "properties": { "REGION": "HAUTS PLATEAUX", "WILAYA": "SOUK AHRAS", "COMMUNE": "OULED DRISS", "NOMBRE PLA": 23 }, "geometry": { "type": "Point", "coordinates": [ 8.0253658, 36.356735 ] } },
{ "type": "Feature", "properties": { "REGION": "HAUTS PLATEAUX", "WILAYA": "SOUK AHRAS", "COMMUNE": "BIR BOU HAOUCH", "NOMBRE PLA": 45 }, "geometry": { "type": "Point", "coordinates": [ 7.4300232, 36.014034 ] } },
{ "type": "Feature", "properties": { "REGION": "HAUTS PLATEAUX", "WILAYA": "SOUK AHRAS", "COMMUNE": "TERRAGUELT", "NOMBRE PLA": 29 }, "geometry": { "type": "Point", "coordinates": [ 7.597868, 35.884392 ] } },
{ "type": "Feature", "properties": { "REGION": "HAUTS PLATEAUX", "WILAYA": "SOUK AHRAS", "COMMUNE": "DREA", "NOMBRE PLA": 24 }, "geometry": { "type": "Point", "coordinates": [ 7.8816843, 36.12162 ] } },
{ "type": "Feature", "properties": { "REGION": "HAUTS PLATEAUX", "WILAYA": "SOUK AHRAS", "COMMUNE": "TIFFECH", "NOMBRE PLA": 37 }, "geometry": { "type": "Point", "coordinates": [ 7.787858, 36.191193 ] } },
{ "type": "Feature", "properties": { "REGION": "HAUTS PLATEAUX", "WILAYA": "TEBESSA", "COMMUNE": "SAFSAF EL OUESRA", "NOMBRE PLA": 54 }, "geometry": { "type": "Point", "coordinates": [ 8.2076283, 34.956585 ] } },
{ "type": "Feature", "properties": { "REGION": "HAUTS PLATEAUX", "WILAYA": "TEBESSA", "COMMUNE": "EL KOUIF", "NOMBRE PLA": 97 }, "geometry": { "type": "Point", "coordinates": [ 8.3225327, 35.499825 ] } },
{ "type": "Feature", "properties": { "REGION": "HAUTS PLATEAUX", "WILAYA": "TEBESSA", "COMMUNE": "BOUKHADRA", "NOMBRE PLA": 53 }, "geometry": { "type": "Point", "coordinates": [ 8.0328817, 35.747635 ] } },
{ "type": "Feature", "properties": { "REGION": "HAUTS PLATEAUX", "WILAYA": "TEBESSA", "COMMUNE": "FERKANE", "NOMBRE PLA": 14 }, "geometry": { "type": "Point", "coordinates": [ 7.4083958, 34.557659 ] } },
{ "type": "Feature", "properties": { "REGION": "HAUTS PLATEAUX", "WILAYA": "TEBESSA", "COMMUNE": "BOULHAF DYR", "NOMBRE PLA": 179 }, "geometry": { "type": "Point", "coordinates": [ 8.5116997, 35.4226 ] } },
{ "type": "Feature", "properties": { "REGION": "HAUTS PLATEAUX", "WILAYA": "TEBESSA", "COMMUNE": "BIR EL ATER", "NOMBRE PLA": 225 }, "geometry": { "type": "Point", "coordinates": [ 8.0574303, 34.761089 ] } },
{ "type": "Feature", "properties": { "REGION": "HAUTS PLATEAUX", "WILAYA": "TEBESSA", "COMMUNE": "HAMMAMET", "NOMBRE PLA": 117 }, "geometry": { "type": "Point", "coordinates": [ 7.9538379, 35.451286 ] } },
{ "type": "Feature", "properties": { "REGION": "HAUTS PLATEAUX", "WILAYA": "TEBESSA", "COMMUNE": "CHERIA", "NOMBRE PLA": 328 }, "geometry": { "type": "Point", "coordinates": [ 7.7471027, 35.268482 ] } },
{ "type": "Feature", "properties": { "REGION": "HAUTS PLATEAUX", "WILAYA": "TEBESSA", "COMMUNE": "EL MERIDJ", "NOMBRE PLA": 39 }, "geometry": { "type": "Point", "coordinates": [ 8.2295008, 35.793949 ] } },
{ "type": "Feature", "properties": { "REGION": "HAUTS PLATEAUX", "WILAYA": "TEBESSA", "COMMUNE": "EL MAZERAA", "NOMBRE PLA": 6 }, "geometry": { "type": "Point", "coordinates": [ 8.3220997, 34.968102 ] } },
{ "type": "Feature", "properties": { "REGION": "HAUTS PLATEAUX", "WILAYA": "TEBESSA", "COMMUNE": "THLIDJENE", "NOMBRE PLA": 74 }, "geometry": { "type": "Point", "coordinates": [ 7.766119, 35.11702 ] } },
{ "type": "Feature", "properties": { "REGION": "HAUTS PLATEAUX", "WILAYA": "TEBESSA", "COMMUNE": "NEGRINE", "NOMBRE PLA": 15 }, "geometry": { "type": "Point", "coordinates": [ 7.5193095, 34.482014 ] } },
{ "type": "Feature", "properties": { "REGION": "HAUTS PLATEAUX", "WILAYA": "TEBESSA", "COMMUNE": "TEBESSA", "NOMBRE PLA": 1373 }, "geometry": { "type": "Point", "coordinates": [ 8.1010923, 35.414249 ] } },
{ "type": "Feature", "properties": { "REGION": "HAUTS PLATEAUX", "WILAYA": "TEBESSA", "COMMUNE": "GOURIGUEUR", "NOMBRE PLA": 5 }, "geometry": { "type": "Point", "coordinates": [ 7.5932331, 35.423527 ] } },
{ "type": "Feature", "properties": { "REGION": "HAUTS PLATEAUX", "WILAYA": "TEBESSA", "COMMUNE": "BIR MOKADEM", "NOMBRE PLA": 49 }, "geometry": { "type": "Point", "coordinates": [ 7.8096037, 35.370823 ] } },
{ "type": "Feature", "properties": { "REGION": "HAUTS PLATEAUX", "WILAYA": "TEBESSA", "COMMUNE": "EL MA LABIOD", "NOMBRE PLA": 65 }, "geometry": { "type": "Point", "coordinates": [ 8.1693668, 35.205185 ] } },
{ "type": "Feature", "properties": { "REGION": "HAUTS PLATEAUX", "WILAYA": "TEBESSA", "COMMUNE": "STAH GUENTIS", "NOMBRE PLA": 115 }, "geometry": { "type": "Point", "coordinates": [ 7.3015909, 34.99519 ] } },
{ "type": "Feature", "properties": { "REGION": "HAUTS PLATEAUX", "WILAYA": "TEBESSA", "COMMUNE": "BEDJENE", "NOMBRE PLA": 11 }, "geometry": { "type": "Point", "coordinates": [ 7.4746518, 35.349773 ] } },
{ "type": "Feature", "properties": { "REGION": "HAUTS PLATEAUX", "WILAYA": "TEBESSA", "COMMUNE": "EL HOUIDJBET", "NOMBRE PLA": 4 }, "geometry": { "type": "Point", "coordinates": [ 8.2801065, 35.291748 ] } },
{ "type": "Feature", "properties": { "REGION": "HAUTS PLATEAUX", "WILAYA": "TEBESSA", "COMMUNE": "EL OGLA", "NOMBRE PLA": 65 }, "geometry": { "type": "Point", "coordinates": [ 7.4666672, 35.183334 ] } },
{ "type": "Feature", "properties": { "REGION": "HAUTS PLATEAUX", "WILAYA": "TEBESSA", "COMMUNE": "EL OUENZA", "NOMBRE PLA": 254 }, "geometry": { "type": "Point", "coordinates": [ 8.1393175, 35.948997 ] } },
{ "type": "Feature", "properties": { "REGION": "HAUTS PLATEAUX", "WILAYA": "TEBESSA", "COMMUNE": "EL OGLA EL MALHA", "NOMBRE PLA": 126 }, "geometry": { "type": "Point", "coordinates": [ 7.4664092, 35.185017 ] } },
{ "type": "Feature", "properties": { "REGION": "HAUTS PLATEAUX", "WILAYA": "TEBESSA", "COMMUNE": "EL AOUINET", "NOMBRE PLA": 117 }, "geometry": { "type": "Point", "coordinates": [ 7.8857665, 35.865807 ] } },
{ "type": "Feature", "properties": { "REGION": "HAUTS PLATEAUX", "WILAYA": "TEBESSA", "COMMUNE": "AIN ZERGA", "NOMBRE PLA": 41 }, "geometry": { "type": "Point", "coordinates": [ 8.2666674, 35.633331 ] } },
{ "type": "Feature", "properties": { "REGION": "HAUTS PLATEAUX", "WILAYA": "TEBESSA", "COMMUNE": "BIR DHEHEB", "NOMBRE PLA": 27 }, "geometry": { "type": "Point", "coordinates": [ 8.3771, 35.460701 ] } },
{ "type": "Feature", "properties": { "REGION": "HAUTS PLATEAUX", "WILAYA": "TEBESSA", "COMMUNE": "BEKKARIA", "NOMBRE PLA": 26 }, "geometry": { "type": "Point", "coordinates": [ 8.25, 35.366669 ] } },
{ "type": "Feature", "properties": { "REGION": "HAUTS PLATEAUX", "WILAYA": "TEBESSA", "COMMUNE": "OUM ALI", "NOMBRE PLA": 12 }, "geometry": { "type": "Point", "coordinates": [ 8.3006325, 35.010445 ] } },
{ "type": "Feature", "properties": { "REGION": "HAUTS PLATEAUX", "WILAYA": "TEBESSA", "COMMUNE": "MORSOT", "NOMBRE PLA": 81 }, "geometry": { "type": "Point", "coordinates": [ 8.0110674, 35.66769 ] } },
{ "type": "Feature", "properties": { "REGION": "HAUTS PLATEAUX", "WILAYA": "TIARET", "COMMUNE": "SERGHINE", "NOMBRE PLA": 6 }, "geometry": { "type": "Point", "coordinates": [ 2.4826727, 35.258141 ] } },
{ "type": "Feature", "properties": { "REGION": "HAUTS PLATEAUX", "WILAYA": "TIARET", "COMMUNE": "OUED LILLI", "NOMBRE PLA": 47 }, "geometry": { "type": "Point", "coordinates": [ 1.2706219, 35.512016 ] } },
{ "type": "Feature", "properties": { "REGION": "HAUTS PLATEAUX", "WILAYA": "TIARET", "COMMUNE": "MACHRAA SFA", "NOMBRE PLA": 34 }, "geometry": { "type": "Point", "coordinates": [ 1.4941, 35.255699 ] } },
{ "type": "Feature", "properties": { "REGION": "HAUTS PLATEAUX", "WILAYA": "TIARET", "COMMUNE": "TIARET", "NOMBRE PLA": 1456 }, "geometry": { "type": "Point", "coordinates": [ 1.3220322, 35.367355 ] } },
{ "type": "Feature", "properties": { "REGION": "HAUTS PLATEAUX", "WILAYA": "TIARET", "COMMUNE": "MEDRISSA", "NOMBRE PLA": 18 }, "geometry": { "type": "Point", "coordinates": [ 1.2433848, 34.891945 ] } },
{ "type": "Feature", "properties": { "REGION": "HAUTS PLATEAUX", "WILAYA": "TIARET", "COMMUNE": "SIDI BAKHTI", "NOMBRE PLA": 8 }, "geometry": { "type": "Point", "coordinates": [ 1.4172, 35.112 ] } },
{ "type": "Feature", "properties": { "REGION": "HAUTS PLATEAUX", "WILAYA": "TIARET", "COMMUNE": "AIN BOUCHEKIF", "NOMBRE PLA": 51 }, "geometry": { "type": "Point", "coordinates": [ 1.5136009, 35.356388 ] } },
{ "type": "Feature", "properties": { "REGION": "HAUTS PLATEAUX", "WILAYA": "TIARET", "COMMUNE": "FAIDJA", "NOMBRE PLA": 36 }, "geometry": { "type": "Point", "coordinates": [ 2.0955999, 34.851002 ] } },
{ "type": "Feature", "properties": { "REGION": "HAUTS PLATEAUX", "WILAYA": "TIARET", "COMMUNE": "HAMADIA", "NOMBRE PLA": 73 }, "geometry": { "type": "Point", "coordinates": [ 1.8733017, 35.460979 ] } },
{ "type": "Feature", "properties": { "REGION": "HAUTS PLATEAUX", "WILAYA": "TIARET", "COMMUNE": "MEGHILA", "NOMBRE PLA": 9 }, "geometry": { "type": "Point", "coordinates": [ 1.3270326, 35.363243 ] } },
{ "type": "Feature", "properties": { "REGION": "HAUTS PLATEAUX", "WILAYA": "TIARET", "COMMUNE": "DAHMOUNI", "NOMBRE PLA": 82 }, "geometry": { "type": "Point", "coordinates": [ 1.4759356, 35.415714 ] } },
{ "type": "Feature", "properties": { "REGION": "HAUTS PLATEAUX", "WILAYA": "TIARET", "COMMUNE": "MADNA", "NOMBRE PLA": 6 }, "geometry": { "type": "Point", "coordinates": [ 1.4227, 34.623001 ] } },
{ "type": "Feature", "properties": { "REGION": "HAUTS PLATEAUX", "WILAYA": "TIARET", "COMMUNE": "AIN ZARIT", "NOMBRE PLA": 8 }, "geometry": { "type": "Point", "coordinates": [ 1.6651379, 35.353035 ] } },
{ "type": "Feature", "properties": { "REGION": "HAUTS PLATEAUX", "WILAYA": "TIARET", "COMMUNE": "SEBT", "NOMBRE PLA": null }, "geometry": { "type": "Point", "coordinates": [ 1.2304602, 35.745682 ] } },
{ "type": "Feature", "properties": { "REGION": "HAUTS PLATEAUX", "WILAYA": "TIARET", "COMMUNE": "DJILLALI BEN AMAR", "NOMBRE PLA": 13 }, "geometry": { "type": "Point", "coordinates": [ 0.85143012, 35.444386 ] } },
{ "type": "Feature", "properties": { "REGION": "HAUTS PLATEAUX", "WILAYA": "TIARET", "COMMUNE": "KSAR CHELLALA", "NOMBRE PLA": 202 }, "geometry": { "type": "Point", "coordinates": [ 2.3172324, 35.22023 ] } },
{ "type": "Feature", "properties": { "REGION": "HAUTS PLATEAUX", "WILAYA": "TIARET", "COMMUNE": "MAHDIA", "NOMBRE PLA": 133 }, "geometry": { "type": "Point", "coordinates": [ 1.7587496, 35.427086 ] } },
{ "type": "Feature", "properties": { "REGION": "HAUTS PLATEAUX", "WILAYA": "TIARET", "COMMUNE": "SOUGUEUR", "NOMBRE PLA": 272 }, "geometry": { "type": "Point", "coordinates": [ 1.4966619, 35.178162 ] } },
{ "type": "Feature", "properties": { "REGION": "HAUTS PLATEAUX", "WILAYA": "TIARET", "COMMUNE": "TOUSNINA", "NOMBRE PLA": 15 }, "geometry": { "type": "Point", "coordinates": [ 1.2758641, 35.113316 ] } },
{ "type": "Feature", "properties": { "REGION": "HAUTS PLATEAUX", "WILAYA": "TIARET", "COMMUNE": "ZMALET EMIR ABDELKADER", "NOMBRE PLA": 16 }, "geometry": { "type": "Point", "coordinates": [ 2.3172324, 34.912121 ] } },
{ "type": "Feature", "properties": { "REGION": "HAUTS PLATEAUX", "WILAYA": "TIARET", "COMMUNE": "AIN KERMES", "NOMBRE PLA": 52 }, "geometry": { "type": "Point", "coordinates": [ 1.0777723, 34.923851 ] } },
{ "type": "Feature", "properties": { "REGION": "HAUTS PLATEAUX", "WILAYA": "TIARET", "COMMUNE": "SIDI HOSNI", "NOMBRE PLA": 15 }, "geometry": { "type": "Point", "coordinates": [ 1.5184418, 35.47142 ] } },
{ "type": "Feature", "properties": { "REGION": "HAUTS PLATEAUX", "WILAYA": "TIARET", "COMMUNE": "MELLAKOU", "NOMBRE PLA": 87 }, "geometry": { "type": "Point", "coordinates": [ 1.2337661, 35.24979 ] } },
{ "type": "Feature", "properties": { "REGION": "HAUTS PLATEAUX", "WILAYA": "TIARET", "COMMUNE": "SIDI ALI MELLAL", "NOMBRE PLA": 9 }, "geometry": { "type": "Point", "coordinates": [ 1.2253693, 35.563736 ] } },
{ "type": "Feature", "properties": { "REGION": "HAUTS PLATEAUX", "WILAYA": "TIARET", "COMMUNE": "AIN DEHEB", "NOMBRE PLA": 42 }, "geometry": { "type": "Point", "coordinates": [ 1.5450766, 34.847126 ] } },
{ "type": "Feature", "properties": { "REGION": "HAUTS PLATEAUX", "WILAYA": "TIARET", "COMMUNE": "NADORAH", "NOMBRE PLA": 3 }, "geometry": { "type": "Point", "coordinates": [ 2.3290999, 35.159199 ] } },
{ "type": "Feature", "properties": { "REGION": "HAUTS PLATEAUX", "WILAYA": "TIARET", "COMMUNE": "AIN EL HADID", "NOMBRE PLA": 14 }, "geometry": { "type": "Point", "coordinates": [ 0.87943113, 35.060421 ] } },
{ "type": "Feature", "properties": { "REGION": "HAUTS PLATEAUX", "WILAYA": "TIARET", "COMMUNE": "NAIMA", "NOMBRE PLA": 41 }, "geometry": { "type": "Point", "coordinates": [ 1.4785205, 35.09177 ] } },
{ "type": "Feature", "properties": { "REGION": "HAUTS PLATEAUX", "WILAYA": "TIARET", "COMMUNE": "FRENDA", "NOMBRE PLA": 145 }, "geometry": { "type": "Point", "coordinates": [ 1.0538253, 35.061787 ] } },
{ "type": "Feature", "properties": { "REGION": "HAUTS PLATEAUX", "WILAYA": "TIARET", "COMMUNE": "DJEBILET ROSFA", "NOMBRE PLA": 12 }, "geometry": { "type": "Point", "coordinates": [ 0.83535308, 34.863697 ] } },
{ "type": "Feature", "properties": { "REGION": "HAUTS PLATEAUX", "WILAYA": "TIARET", "COMMUNE": "RECHAIGA", "NOMBRE PLA": 79 }, "geometry": { "type": "Point", "coordinates": [ 1.9710284, 35.410126 ] } },
{ "type": "Feature", "properties": { "REGION": "HAUTS PLATEAUX", "WILAYA": "TIARET", "COMMUNE": "TAGDEMT", "NOMBRE PLA": 9 }, "geometry": { "type": "Point", "coordinates": [ 1.2283566, 35.335609 ] } },
{ "type": "Feature", "properties": { "REGION": "HAUTS PLATEAUX", "WILAYA": "TIARET", "COMMUNE": "GUERTOUFA", "NOMBRE PLA": 27 }, "geometry": { "type": "Point", "coordinates": [ 1.2578169, 35.392208 ] } },
{ "type": "Feature", "properties": { "REGION": "HAUTS PLATEAUX", "WILAYA": "TIARET", "COMMUNE": "SIDI ABDELGHANI", "NOMBRE PLA": 13 }, "geometry": { "type": "Point", "coordinates": [ 2.0792, 35.098598 ] } },
{ "type": "Feature", "properties": { "REGION": "HAUTS PLATEAUX", "WILAYA": "TIARET", "COMMUNE": "RAHOUIA", "NOMBRE PLA": 49 }, "geometry": { "type": "Point", "coordinates": [ 1.0227145, 35.531368 ] } },
{ "type": "Feature", "properties": { "REGION": "HAUTS PLATEAUX", "WILAYA": "TIARET", "COMMUNE": "CHEHAIMA", "NOMBRE PLA": 4 }, "geometry": { "type": "Point", "coordinates": [ 1.3047556, 34.898201 ] } },
{ "type": "Feature", "properties": { "REGION": "HAUTS PLATEAUX", "WILAYA": "TIARET", "COMMUNE": "SEBAINE", "NOMBRE PLA": 15 }, "geometry": { "type": "Point", "coordinates": [ 1.6020337, 35.458023 ] } },
{ "type": "Feature", "properties": { "REGION": "HAUTS PLATEAUX", "WILAYA": "TIARET", "COMMUNE": "TIDDA", "NOMBRE PLA": 1 }, "geometry": { "type": "Point", "coordinates": [ 1.266238, 35.582417 ] } },
{ "type": "Feature", "properties": { "REGION": "HAUTS PLATEAUX", "WILAYA": "TIARET", "COMMUNE": "SIDI ABDERRAHMANE", "NOMBRE PLA": 21 }, "geometry": { "type": "Point", "coordinates": [ 1.1329035, 34.799206 ] } },
{ "type": "Feature", "properties": { "REGION": "HAUTS PLATEAUX", "WILAYA": "TIARET", "COMMUNE": "MEDROUSSA", "NOMBRE PLA": 41 }, "geometry": { "type": "Point", "coordinates": [ 1.2049233, 35.173153 ] } },
{ "type": "Feature", "properties": { "REGION": "HAUTS PLATEAUX", "WILAYA": "TIARET", "COMMUNE": "BOUGARA", "NOMBRE PLA": 9 }, "geometry": { "type": "Point", "coordinates": [ 1.961246, 34.799206 ] } },
{ "type": "Feature", "properties": { "REGION": "HAUTS PLATEAUX", "WILAYA": "TIARET", "COMMUNE": "TAKHMARET", "NOMBRE PLA": 33 }, "geometry": { "type": "Point", "coordinates": [ 0.6844213, 35.105698 ] } },
{ "type": "Feature", "properties": { "REGION": "HAUTS PLATEAUX", "WILAYA": "TISSEMSILT", "COMMUNE": "BORDJ BOUNAAMA", "NOMBRE PLA": 157 }, "geometry": { "type": "Point", "coordinates": [ 1.615375, 35.852623 ] } },
{ "type": "Feature", "properties": { "REGION": "HAUTS PLATEAUX", "WILAYA": "TISSEMSILT", "COMMUNE": "SIDI LANTRI", "NOMBRE PLA": 41 }, "geometry": { "type": "Point", "coordinates": [ 1.5064654, 35.696178 ] } },
{ "type": "Feature", "properties": { "REGION": "HAUTS PLATEAUX", "WILAYA": "TISSEMSILT", "COMMUNE": "BORDJ EL EMIR ABDELKADER", "NOMBRE PLA": 79 }, "geometry": { "type": "Point", "coordinates": [ 2.2605774, 35.864059 ] } },
{ "type": "Feature", "properties": { "REGION": "HAUTS PLATEAUX", "WILAYA": "TISSEMSILT", "COMMUNE": "LARBAA", "NOMBRE PLA": 9 }, "geometry": { "type": "Point", "coordinates": [ 1.9144, 35.7855 ] } },
{ "type": "Feature", "properties": { "REGION": "HAUTS PLATEAUX", "WILAYA": "TISSEMSILT", "COMMUNE": "KHEMISTI", "NOMBRE PLA": 157 }, "geometry": { "type": "Point", "coordinates": [ 1.961246, 35.667435 ] } },
{ "type": "Feature", "properties": { "REGION": "HAUTS PLATEAUX", "WILAYA": "TISSEMSILT", "COMMUNE": "TAMALAHT", "NOMBRE PLA": 54 }, "geometry": { "type": "Point", "coordinates": [ 2.0627, 35.6852 ] } },
{ "type": "Feature", "properties": { "REGION": "HAUTS PLATEAUX", "WILAYA": "TISSEMSILT", "COMMUNE": "LAYOUNE", "NOMBRE PLA": 231 }, "geometry": { "type": "Point", "coordinates": [ 1.9954938, 35.688721 ] } },
{ "type": "Feature", "properties": { "REGION": "HAUTS PLATEAUX", "WILAYA": "TISSEMSILT", "COMMUNE": "LARDJEM", "NOMBRE PLA": 115 }, "geometry": { "type": "Point", "coordinates": [ 1.5450766, 35.747185 ] } },
{ "type": "Feature", "properties": { "REGION": "HAUTS PLATEAUX", "WILAYA": "TISSEMSILT", "COMMUNE": "SIDI BOUTOUCHENT", "NOMBRE PLA": 36 }, "geometry": { "type": "Point", "coordinates": [ 1.9484098, 35.825222 ] } },
{ "type": "Feature", "properties": { "REGION": "HAUTS PLATEAUX", "WILAYA": "TISSEMSILT", "COMMUNE": "MAACEM", "NOMBRE PLA": 38 }, "geometry": { "type": "Point", "coordinates": [ 1.5520259, 35.659187 ] } },
{ "type": "Feature", "properties": { "REGION": "HAUTS PLATEAUX", "WILAYA": "TISSEMSILT", "COMMUNE": "BENI LAHCENE", "NOMBRE PLA": 45 }, "geometry": { "type": "Point", "coordinates": [ 1.6894332, 35.814812 ] } },
{ "type": "Feature", "properties": { "REGION": "HAUTS PLATEAUX", "WILAYA": "TISSEMSILT", "COMMUNE": "TISSEMSILT", "NOMBRE PLA": 1374 }, "geometry": { "type": "Point", "coordinates": [ 1.8074586, 35.601517 ] } },
{ "type": "Feature", "properties": { "REGION": "HAUTS PLATEAUX", "WILAYA": "TISSEMSILT", "COMMUNE": "SIDI ABED", "NOMBRE PLA": 43 }, "geometry": { "type": "Point", "coordinates": [ 1.7076637, 35.742268 ] } },
{ "type": "Feature", "properties": { "REGION": "HAUTS PLATEAUX", "WILAYA": "TISSEMSILT", "COMMUNE": "BENI CHAIB", "NOMBRE PLA": 13 }, "geometry": { "type": "Point", "coordinates": [ 2.2385001, 35.691898 ] } },
{ "type": "Feature", "properties": { "REGION": "HAUTS PLATEAUX", "WILAYA": "TISSEMSILT", "COMMUNE": "AMMARI", "NOMBRE PLA": 97 }, "geometry": { "type": "Point", "coordinates": [ 1.7343807, 35.57259 ] } },
{ "type": "Feature", "properties": { "REGION": "HAUTS PLATEAUX", "WILAYA": "TISSEMSILT", "COMMUNE": "SIDI SLIMANE", "NOMBRE PLA": 191 }, "geometry": { "type": "Point", "coordinates": [ 1.6784986, 35.862663 ] } },
{ "type": "Feature", "properties": { "REGION": "HAUTS PLATEAUX", "WILAYA": "TISSEMSILT", "COMMUNE": "BOUCAID", "NOMBRE PLA": 37 }, "geometry": { "type": "Point", "coordinates": [ 1.615375, 35.89077 ] } },
{ "type": "Feature", "properties": { "REGION": "HAUTS PLATEAUX", "WILAYA": "TISSEMSILT", "COMMUNE": "LAZHARIA", "NOMBRE PLA": 22 }, "geometry": { "type": "Point", "coordinates": [ 1.5620347, 35.935043 ] } },
{ "type": "Feature", "properties": { "REGION": "HAUTS PLATEAUX", "WILAYA": "TISSEMSILT", "COMMUNE": "MELAAB", "NOMBRE PLA": 9 }, "geometry": { "type": "Point", "coordinates": [ 1.3360772, 35.712826 ] } },
{ "type": "Feature", "properties": { "REGION": "HAUTS PLATEAUX", "WILAYA": "TISSEMSILT", "COMMUNE": "YOUSSOUFIA", "NOMBRE PLA": 20 }, "geometry": { "type": "Point", "coordinates": [ 2.1125019, 35.94775 ] } },
{ "type": "Feature", "properties": { "REGION": "HAUTS PLATEAUX", "WILAYA": "TISSEMSILT", "COMMUNE": "OULED BESSEM", "NOMBRE PLA": 183 }, "geometry": { "type": "Point", "coordinates": [ 1.866667, 35.683334 ] } },
{ "type": "Feature", "properties": { "REGION": "HAUTS PLATEAUX", "WILAYA": "TISSEMSILT", "COMMUNE": "THENIET EL HAD", "NOMBRE PLA": 390 }, "geometry": { "type": "Point", "coordinates": [ 2.0077317, 35.876705 ] } },
{ "type": "Feature", "properties": { "REGION": "SUD", "WILAYA": "ADRAR", "COMMUNE": "TIMIMOUN", "NOMBRE PLA": 715 }, "geometry": { "type": "Point", "coordinates": [ 0.2385387, 29.260921 ] } },
{ "type": "Feature", "properties": { "REGION": "SUD", "WILAYA": "ADRAR", "COMMUNE": "AOUGROUT", "NOMBRE PLA": 111 }, "geometry": { "type": "Point", "coordinates": [ 0.25, 28.75 ] } },
{ "type": "Feature", "properties": { "REGION": "SUD", "WILAYA": "ADRAR", "COMMUNE": "TIT", "NOMBRE PLA": 8 }, "geometry": { "type": "Point", "coordinates": [ 1.4869856, 26.936237 ] } },
{ "type": "Feature", "properties": { "REGION": "SUD", "WILAYA": "ADRAR", "COMMUNE": "SEBAA", "NOMBRE PLA": 19 }, "geometry": { "type": "Point", "coordinates": [ -0.1729106, 28.211617 ] } },
{ "type": "Feature", "properties": { "REGION": "SUD", "WILAYA": "ADRAR", "COMMUNE": "REGGANE", "NOMBRE PLA": 129 }, "geometry": { "type": "Point", "coordinates": [ -1.5208623, 25.275963 ] } },
{ "type": "Feature", "properties": { "REGION": "SUD", "WILAYA": "ADRAR", "COMMUNE": "AKABILI", "NOMBRE PLA": 12 }, "geometry": { "type": "Point", "coordinates": [ 1.3613923, 26.701895 ] } },
{ "type": "Feature", "properties": { "REGION": "SUD", "WILAYA": "ADRAR", "COMMUNE": "ADRAR", "NOMBRE PLA": 730 }, "geometry": { "type": "Point", "coordinates": [ -0.18696439, 27.971634 ] } },
{ "type": "Feature", "properties": { "REGION": "SUD", "WILAYA": "ADRAR", "COMMUNE": "OULED AHMED TIMI", "NOMBRE PLA": 101 }, "geometry": { "type": "Point", "coordinates": [ -0.2807577, 27.851517 ] } },
{ "type": "Feature", "properties": { "REGION": "SUD", "WILAYA": "ADRAR", "COMMUNE": "OULED SAID", "NOMBRE PLA": 141 }, "geometry": { "type": "Point", "coordinates": [ 0.2455769, 29.420609 ] } },
{ "type": "Feature", "properties": { "REGION": "SUD", "WILAYA": "ADRAR", "COMMUNE": "TAMENTIT", "NOMBRE PLA": 46 }, "geometry": { "type": "Point", "coordinates": [ -0.26669899, 27.766401 ] } },
{ "type": "Feature", "properties": { "REGION": "SUD", "WILAYA": "ADRAR", "COMMUNE": "TIMIAOUINE", "NOMBRE PLA": 30 }, "geometry": { "type": "Point", "coordinates": [ 1.6760691, 20.894806 ] } },
{ "type": "Feature", "properties": { "REGION": "SUD", "WILAYA": "ADRAR", "COMMUNE": "AOULEF", "NOMBRE PLA": 79 }, "geometry": { "type": "Point", "coordinates": [ 1.0729818, 26.975294 ] } },
{ "type": "Feature", "properties": { "REGION": "SUD", "WILAYA": "ADRAR", "COMMUNE": "ZAOUIET KOUNTA", "NOMBRE PLA": 93 }, "geometry": { "type": "Point", "coordinates": [ -0.2010233, 27.226313 ] } },
{ "type": "Feature", "properties": { "REGION": "SUD", "WILAYA": "ADRAR", "COMMUNE": "SALI", "NOMBRE PLA": 106 }, "geometry": { "type": "Point", "coordinates": [ -0.0877444, 27.03635 ] } },
{ "type": "Feature", "properties": { "REGION": "SUD", "WILAYA": "ADRAR", "COMMUNE": "KSAR KADDOUR", "NOMBRE PLA": 248 }, "geometry": { "type": "Point", "coordinates": [ 0.3724815, 29.582739 ] } },
{ "type": "Feature", "properties": { "REGION": "SUD", "WILAYA": "ADRAR", "COMMUNE": "DELDOUL", "NOMBRE PLA": 45 }, "geometry": { "type": "Point", "coordinates": [ 0.42300001, 28.694201 ] } },
{ "type": "Feature", "properties": { "REGION": "SUD", "WILAYA": "ADRAR", "COMMUNE": "TIMOKTEN", "NOMBRE PLA": 112 }, "geometry": { "type": "Point", "coordinates": [ 1.0442502, 27.022593 ] } },
{ "type": "Feature", "properties": { "REGION": "SUD", "WILAYA": "ADRAR", "COMMUNE": "FENOUGHIL", "NOMBRE PLA": 83 }, "geometry": { "type": "Point", "coordinates": [ -0.30427781, 27.649019 ] } },
{ "type": "Feature", "properties": { "REGION": "SUD", "WILAYA": "ADRAR", "COMMUNE": "BOUDA", "NOMBRE PLA": 60 }, "geometry": { "type": "Point", "coordinates": [ -0.42463151, 27.95542 ] } },
{ "type": "Feature", "properties": { "REGION": "SUD", "WILAYA": "ADRAR", "COMMUNE": "TAMEST", "NOMBRE PLA": 28 }, "geometry": { "type": "Point", "coordinates": [ -0.26027781, 27.45389 ] } },
{ "type": "Feature", "properties": { "REGION": "SUD", "WILAYA": "ADRAR", "COMMUNE": "METARFA", "NOMBRE PLA": 40 }, "geometry": { "type": "Point", "coordinates": [ -0.1448182, 28.597229 ] } },
{ "type": "Feature", "properties": { "REGION": "SUD", "WILAYA": "ADRAR", "COMMUNE": "CHAROUINE", "NOMBRE PLA": 45 }, "geometry": { "type": "Point", "coordinates": [ -0.259657, 29.019556 ] } },
{ "type": "Feature", "properties": { "REGION": "SUD", "WILAYA": "ADRAR", "COMMUNE": "OULED AISSA", "NOMBRE PLA": 27 }, "geometry": { "type": "Point", "coordinates": [ -0.088694803, 29.423708 ] } },
{ "type": "Feature", "properties": { "REGION": "SUD", "WILAYA": "ADRAR", "COMMUNE": "TINERKOUK", "NOMBRE PLA": 826 }, "geometry": { "type": "Point", "coordinates": [ 0.7105267, 29.711748 ] } },
{ "type": "Feature", "properties": { "REGION": "SUD", "WILAYA": "ADRAR", "COMMUNE": "BORDJ BADJI MOKHTAR", "NOMBRE PLA": 161 }, "geometry": { "type": "Point", "coordinates": [ -0.9056623, 23.760643 ] } },
{ "type": "Feature", "properties": { "REGION": "SUD", "WILAYA": "ADRAR", "COMMUNE": "TSABIT", "NOMBRE PLA": 87 }, "geometry": { "type": "Point", "coordinates": [ -0.2186041, 28.350403 ] } },
{ "type": "Feature", "properties": { "REGION": "SUD", "WILAYA": "BECHAR", "COMMUNE": "OULED KHOUDIR", "NOMBRE PLA": 4 }, "geometry": { "type": "Point", "coordinates": [ -1.0598108, 29.255501 ] } },
{ "type": "Feature", "properties": { "REGION": "SUD", "WILAYA": "BECHAR", "COMMUNE": "BENI IKHLEF", "NOMBRE PLA": 8 },